{
"type": "FeatureCollection",
"name": "community_centres_ch",
"crs": { "type": "name", "properties": { "name": "urn:ogc:def:crs:OGC:1.3:CRS84" } },
"xy_coordinate_resolution": 1e-15,
"features": [
{ "type": "Feature", "properties": { "fid": 13, "osm_id": "3064945881", "code": 2007, "fclass": "library", "name": "Blacon Libary", "layer": "Clipped", "path": "Point?crs=EPSG:4326&field=fid:long(0,0)&field=osm_id:string(12,0)&field=code:integer(0,0)&field=fclass:string(28,0)&field=name:string(100,0)&uid={aa89c25d-3e6d-448f-85d3-818cb5936723}" }, "geometry": { "type": "Point", "coordinates": [ -2.9265268, 53.2084149 ] } },
{ "type": "Feature", "properties": { "fid": 9, "osm_id": "1877286543", "code": 2007, "fclass": "library", "name": "Vicars Cross Library", "layer": "Clipped", "path": "Point?crs=EPSG:4326&field=fid:long(0,0)&field=osm_id:string(12,0)&field=code:integer(0,0)&field=fclass:string(28,0)&field=name:string(100,0)&uid={aa89c25d-3e6d-448f-85d3-818cb5936723}" }, "geometry": { "type": "Point", "coordinates": [ -2.8542302, 53.1972725 ] } },
{ "type": "Feature", "properties": { "fid": 14, "osm_id": "3157725410", "code": 2012, "fclass": "community_centre", "name": "Fab Lab", "layer": "Clipped", "path": "Point?crs=EPSG:4326&field=fid:long(0,0)&field=osm_id:string(12,0)&field=code:integer(0,0)&field=fclass:string(28,0)&field=name:string(100,0)&uid={aa89c25d-3e6d-448f-85d3-818cb5936723}" }, "geometry": { "type": "Point", "coordinates": [ -2.8993905, 53.2797157 ] } },
{ "type": "Feature", "properties": { "fid": 21, "osm_id": "8214287766", "code": 2012, "fclass": "community_centre", "name": "Kingsway and Newton Residents Association", "layer": "Clipped", "path": "Point?crs=EPSG:4326&field=fid:long(0,0)&field=osm_id:string(12,0)&field=code:integer(0,0)&field=fclass:string(28,0)&field=name:string(100,0)&uid={aa89c25d-3e6d-448f-85d3-818cb5936723}" }, "geometry": { "type": "Point", "coordinates": [ -2.8709953, 53.20802 ] } },
{ "type": "Feature", "properties": { "fid": 3, "osm_id": "344873370", "code": 2007, "fclass": "library", "name": "Upton library", "layer": "Clipped", "path": "Point?crs=EPSG:4326&field=fid:long(0,0)&field=osm_id:string(12,0)&field=code:integer(0,0)&field=fclass:string(28,0)&field=name:string(100,0)&uid={aa89c25d-3e6d-448f-85d3-818cb5936723}" }, "geometry": { "type": "Point", "coordinates": [ -2.8845596, 53.2132189 ] } },
{ "type": "Feature", "properties": { "fid": 15, "osm_id": "3342020688", "code": 2007, "fclass": "library", "name": null, "layer": "Clipped", "path": "Point?crs=EPSG:4326&field=fid:long(0,0)&field=osm_id:string(12,0)&field=code:integer(0,0)&field=fclass:string(28,0)&field=name:string(100,0)&uid={aa89c25d-3e6d-448f-85d3-818cb5936723}" }, "geometry": { "type": "Point", "coordinates": [ -2.9211673, 53.2659814 ] } },
{ "type": "Feature", "properties": { "fid": 19, "osm_id": "4961870787", "code": 2007, "fclass": "library", "name": "Chester Library", "layer": "Clipped", "path": "Point?crs=EPSG:4326&field=fid:long(0,0)&field=osm_id:string(12,0)&field=code:integer(0,0)&field=fclass:string(28,0)&field=name:string(100,0)&uid={aa89c25d-3e6d-448f-85d3-818cb5936723}" }, "geometry": { "type": "Point", "coordinates": [ -2.8929105, 53.1927755 ] } },
{ "type": "Feature", "properties": { "fid": 4, "osm_id": "152948712", "code": 2007, "fclass": "library", "name": "Higher Bebington Library", "layer": "Clipped", "path": "Point?crs=EPSG:4326&field=fid:long(0,0)&field=osm_id:string(12,0)&field=code:integer(0,0)&field=fclass:string(28,0)&field=name:string(100,0)&uid={fca14f20-da86-466d-8847-8fa68b42d749}" }, "geometry": { "type": "Point", "coordinates": [ -3.0230053, 53.3541497 ] } },
{ "type": "Feature", "properties": { "fid": 16, "osm_id": "2409913827", "code": 2007, "fclass": "library", "name": "St James Library", "layer": "Clipped", "path": "Point?crs=EPSG:4326&field=fid:long(0,0)&field=osm_id:string(12,0)&field=code:integer(0,0)&field=fclass:string(28,0)&field=name:string(100,0)&uid={fca14f20-da86-466d-8847-8fa68b42d749}" }, "geometry": { "type": "Point", "coordinates": [ -3.0566329, 53.4013144 ] } },
{ "type": "Feature", "properties": { "fid": 12, "osm_id": "491538949", "code": 2007, "fclass": "library", "name": "Birkenhead Central", "layer": "Clipped", "path": "Point?crs=EPSG:4326&field=fid:long(0,0)&field=osm_id:string(12,0)&field=code:integer(0,0)&field=fclass:string(28,0)&field=name:string(100,0)&uid={fca14f20-da86-466d-8847-8fa68b42d749}" }, "geometry": { "type": "Point", "coordinates": [ -3.0318214, 53.3860902 ] } },
{ "type": "Feature", "properties": { "fid": 36, "osm_id": "10278846747", "code": 2012, "fclass": "community_centre", "name": "BirkenEd's Place", "layer": "Clipped", "path": "Point?crs=EPSG:4326&field=fid:long(0,0)&field=osm_id:string(12,0)&field=code:integer(0,0)&field=fclass:string(28,0)&field=name:string(100,0)&uid={fca14f20-da86-466d-8847-8fa68b42d749}" }, "geometry": { "type": "Point", "coordinates": [ -3.02436, 53.3894341 ] } },
{ "type": "Feature", "properties": { "fid": 7, "osm_id": "344496630", "code": 2007, "fclass": "library", "name": "Bromborough Civic Hall & Library", "layer": "Clipped", "path": "Point?crs=EPSG:4326&field=fid:long(0,0)&field=osm_id:string(12,0)&field=code:integer(0,0)&field=fclass:string(28,0)&field=name:string(100,0)&uid={fca14f20-da86-466d-8847-8fa68b42d749}" }, "geometry": { "type": "Point", "coordinates": [ -2.9784337, 53.3304664 ] } },
{ "type": "Feature", "properties": { "fid": 34, "osm_id": "10013249788", "code": 2012, "fclass": "community_centre", "name": "Windsor Close Community Centre", "layer": "Clipped", "path": "Point?crs=EPSG:4326&field=fid:long(0,0)&field=osm_id:string(12,0)&field=code:integer(0,0)&field=fclass:string(28,0)&field=name:string(100,0)&uid={fca14f20-da86-466d-8847-8fa68b42d749}" }, "geometry": { "type": "Point", "coordinates": [ -3.0002229, 53.3590723 ] } },
{ "type": "Feature", "properties": { "fid": 5, "osm_id": "153026583", "code": 2007, "fclass": "library", "name": null, "layer": "Clipped", "path": "Point?crs=EPSG:4326&field=fid:long(0,0)&field=osm_id:string(12,0)&field=code:integer(0,0)&field=fclass:string(28,0)&field=name:string(100,0)&uid={fca14f20-da86-466d-8847-8fa68b42d749}" }, "geometry": { "type": "Point", "coordinates": [ -3.00401, 53.3500394 ] } },
{ "type": "Feature", "properties": { "fid": 13, "osm_id": "1333708174", "code": 2007, "fclass": "library", "name": "Eastham Library", "layer": "Clipped", "path": "Point?crs=EPSG:4326&field=fid:long(0,0)&field=osm_id:string(12,0)&field=code:integer(0,0)&field=fclass:string(28,0)&field=name:string(100,0)&uid={fca14f20-da86-466d-8847-8fa68b42d749}" }, "geometry": { "type": "Point", "coordinates": [ -2.9652025, 53.312151 ] } },
{ "type": "Feature", "properties": { "fid": 33, "osm_id": "9991607129", "code": 2007, "fclass": "library", "name": null, "layer": "Clipped", "path": "Point?crs=EPSG:4326&field=fid:long(0,0)&field=osm_id:string(12,0)&field=code:integer(0,0)&field=fclass:string(28,0)&field=name:string(100,0)&uid={fca14f20-da86-466d-8847-8fa68b42d749}" }, "geometry": { "type": "Point", "coordinates": [ -2.9606439, 53.3141099 ] } },
{ "type": "Feature", "properties": { "fid": 11, "osm_id": "443422011", "code": 2007, "fclass": "library", "name": "West Kirby Library", "layer": "Clipped", "path": "Point?crs=EPSG:4326&field=fid:long(0,0)&field=osm_id:string(12,0)&field=code:integer(0,0)&field=fclass:string(28,0)&field=name:string(100,0)&uid={fca14f20-da86-466d-8847-8fa68b42d749}" }, "geometry": { "type": "Point", "coordinates": [ -3.1825257, 53.3732026 ] } },
{ "type": "Feature", "properties": { "fid": 21, "osm_id": "2627336785", "code": 2012, "fclass": "community_centre", "name": "Westbourne Hall Community Centre", "layer": "Clipped", "path": "Point?crs=EPSG:4326&field=fid:long(0,0)&field=osm_id:string(12,0)&field=code:integer(0,0)&field=fclass:string(28,0)&field=name:string(100,0)&uid={fca14f20-da86-466d-8847-8fa68b42d749}" }, "geometry": { "type": "Point", "coordinates": [ -3.1806896, 53.3705714 ] } },
{ "type": "Feature", "properties": { "fid": 19, "osm_id": "2480916752", "code": 2007, "fclass": "library", "name": "Leasowe Library", "layer": "Clipped", "path": "Point?crs=EPSG:4326&field=fid:long(0,0)&field=osm_id:string(12,0)&field=code:integer(0,0)&field=fclass:string(28,0)&field=name:string(100,0)&uid={fca14f20-da86-466d-8847-8fa68b42d749}" }, "geometry": { "type": "Point", "coordinates": [ -3.0933048, 53.4157906 ] } },
{ "type": "Feature", "properties": { "fid": 17, "osm_id": "2451356023", "code": 2012, "fclass": "community_centre", "name": "Liscard Community Centre", "layer": "Clipped", "path": "Point?crs=EPSG:4326&field=fid:long(0,0)&field=osm_id:string(12,0)&field=code:integer(0,0)&field=fclass:string(28,0)&field=name:string(100,0)&uid={fca14f20-da86-466d-8847-8fa68b42d749}" }, "geometry": { "type": "Point", "coordinates": [ -3.044244, 53.4218769 ] } },
{ "type": "Feature", "properties": { "fid": 20, "osm_id": "2554412990", "code": 2007, "fclass": "library", "name": "Greasby Library", "layer": "Clipped", "path": "Point?crs=EPSG:4326&field=fid:long(0,0)&field=osm_id:string(12,0)&field=code:integer(0,0)&field=fclass:string(28,0)&field=name:string(100,0)&uid={fca14f20-da86-466d-8847-8fa68b42d749}" }, "geometry": { "type": "Point", "coordinates": [ -3.1214419, 53.3776255 ] } },
{ "type": "Feature", "properties": { "fid": 14, "osm_id": "2133622197", "code": 2007, "fclass": "library", "name": "Irby Library", "layer": "Clipped", "path": "Point?crs=EPSG:4326&field=fid:long(0,0)&field=osm_id:string(12,0)&field=code:integer(0,0)&field=fclass:string(28,0)&field=name:string(100,0)&uid={fca14f20-da86-466d-8847-8fa68b42d749}" }, "geometry": { "type": "Point", "coordinates": [ -3.1196305, 53.352101 ] } },
{ "type": "Feature", "properties": { "fid": 23, "osm_id": "5198489822", "code": 2012, "fclass": "community_centre", "name": "Pembroke Court/ The Beacons", "layer": "Clipped", "path": "Point?crs=EPSG:4326&field=fid:long(0,0)&field=osm_id:string(12,0)&field=code:integer(0,0)&field=fclass:string(28,0)&field=name:string(100,0)&uid={fca14f20-da86-466d-8847-8fa68b42d749}" }, "geometry": { "type": "Point", "coordinates": [ -3.0158275, 53.3816019 ] } },
{ "type": "Feature", "properties": { "fid": 18, "osm_id": "2472154671", "code": 2007, "fclass": "library", "name": "Wallasey Village Library", "layer": "Clipped", "path": "Point?crs=EPSG:4326&field=fid:long(0,0)&field=osm_id:string(12,0)&field=code:integer(0,0)&field=fclass:string(28,0)&field=name:string(100,0)&uid={fca14f20-da86-466d-8847-8fa68b42d749}" }, "geometry": { "type": "Point", "coordinates": [ -3.0626567, 53.4220869 ] } }
]
}
