{
"type": "FeatureCollection",
"name": "youth_provision_ch",
"crs": { "type": "name", "properties": { "name": "urn:ogc:def:crs:OGC:1.3:CRS84" } },
"features": [
{ "type": "Feature", "properties": { "name": "St Helens Mentoring 1", "postcode": "WA10 1UF", "lat": 53.454400101501783, "lon": -2.732561912, "category": "mentoring", "confidence": "medium" }, "geometry": { "type": "Point", "coordinates": [ -2.732561912, 53.454400101501783 ] } },
{ "type": "Feature", "properties": { "name": "Burnage Send Support 2", "postcode": "M19 2WY", "lat": 53.436120715550125, "lon": -2.186308652, "category": "SEND_support", "confidence": "high" }, "geometry": { "type": "Point", "coordinates": [ -2.186308652, 53.436120715550125 ] } },
{ "type": "Feature", "properties": { "name": "Allerton Mentoring 3", "postcode": "L18 1ED", "lat": 53.387742556982865, "lon": -2.907846235, "category": "mentoring", "confidence": "high" }, "geometry": { "type": "Point", "coordinates": [ -2.907846235, 53.387742556982865 ] } },
{ "type": "Feature", "properties": { "name": "Moss Side Community Youth 4", "postcode": "M16 7EX", "lat": 53.456172505023062, "lon": -2.271623214, "category": "community_youth", "confidence": "medium" }, "geometry": { "type": "Point", "coordinates": [ -2.271623214, 53.456172505023062 ] } },
{ "type": "Feature", "properties": { "name": "Burnage Send Support 5", "postcode": "M19 2WY", "lat": 53.437738054711673, "lon": -2.185475955, "category": "SEND_support", "confidence": "high" }, "geometry": { "type": "Point", "coordinates": [ -2.185475955, 53.437738054711673 ] } },
{ "type": "Feature", "properties": { "name": "Chorlton Mentoring 6", "postcode": "M21 8BF", "lat": 53.446468949270269, "lon": -2.270201867, "category": "mentoring", "confidence": "low" }, "geometry": { "type": "Point", "coordinates": [ -2.270201867, 53.446468949270269 ] } },
{ "type": "Feature", "properties": { "name": "Moreton Faith Youth 7", "postcode": "CH46 8SA", "lat": 53.405299839626544, "lon": -3.102585413, "category": "faith_youth", "confidence": "low" }, "geometry": { "type": "Point", "coordinates": [ -3.102585413, 53.405299839626544 ] } },
{ "type": "Feature", "properties": { "name": "Congleton Arts Youth 8", "postcode": "CW12 1ET", "lat": 53.168398373828268, "lon": -2.220570624, "category": "arts_youth", "confidence": "low" }, "geometry": { "type": "Point", "coordinates": [ -2.220570624, 53.168398373828268 ] } },
{ "type": "Feature", "properties": { "name": "Ellesmere Port Send Support 9", "postcode": "CH65 2ER", "lat": 53.26881721935041, "lon": -2.911072435, "category": "SEND_support", "confidence": "low" }, "geometry": { "type": "Point", "coordinates": [ -2.911072435, 53.26881721935041 ] } },
{ "type": "Feature", "properties": { "name": "Crewe Send Support 10", "postcode": "CW1 2DA", "lat": 53.098338242641525, "lon": -2.440983923, "category": "SEND_support", "confidence": "medium" }, "geometry": { "type": "Point", "coordinates": [ -2.440983923, 53.098338242641525 ] } },
{ "type": "Feature", "properties": { "name": "Prestwich Youth Centre 11", "postcode": "M25 1AN", "lat": 53.512901075114655, "lon": -2.287840677, "category": "youth_centre", "confidence": "high" }, "geometry": { "type": "Point", "coordinates": [ -2.287840677, 53.512901075114655 ] } },
{ "type": "Feature", "properties": { "name": "Middlewich Community Youth 12", "postcode": "CW10 9BX", "lat": 53.195521942253038, "lon": -2.441317394, "category": "community_youth", "confidence": "low" }, "geometry": { "type": "Point", "coordinates": [ -2.441317394, 53.195521942253038 ] } },
{ "type": "Feature", "properties": { "name": "Congleton Sports Youth 13", "postcode": "CW12 1ET", "lat": 53.167438126018865, "lon": -2.222051316, "category": "sports_youth", "confidence": "low" }, "geometry": { "type": "Point", "coordinates": [ -2.222051316, 53.167438126018865 ] } },
{ "type": "Feature", "properties": { "name": "Liverpool Mentoring 14", "postcode": "L1 5DW", "lat": 53.410798281753955, "lon": -2.975919704, "category": "mentoring", "confidence": "high" }, "geometry": { "type": "Point", "coordinates": [ -2.975919704, 53.410798281753955 ] } },
{ "type": "Feature", "properties": { "name": "Manchester Faith Youth 15", "postcode": "M1 5AN", "lat": 53.470829687384374, "lon": -2.25095554, "category": "faith_youth", "confidence": "low" }, "geometry": { "type": "Point", "coordinates": [ -2.25095554, 53.470829687384374 ] } },
{ "type": "Feature", "properties": { "name": "Eccles Send Support 16", "postcode": "M30 0DL", "lat": 53.474951157683037, "lon": -2.365520797, "category": "SEND_support", "confidence": "medium" }, "geometry": { "type": "Point", "coordinates": [ -2.365520797, 53.474951157683037 ] } },
{ "type": "Feature", "properties": { "name": "Eccles Faith Youth 17", "postcode": "M30 0DL", "lat": 53.473889525075705, "lon": -2.346900386, "category": "faith_youth", "confidence": "high" }, "geometry": { "type": "Point", "coordinates": [ -2.346900386, 53.473889525075705 ] } },
{ "type": "Feature", "properties": { "name": "Prestwich Youth Centre 18", "postcode": "M25 1AN", "lat": 53.531425513905425, "lon": -2.286166917, "category": "youth_centre", "confidence": "high" }, "geometry": { "type": "Point", "coordinates": [ -2.286166917, 53.531425513905425 ] } },
{ "type": "Feature", "properties": { "name": "Moss Side Community Youth 19", "postcode": "M16 7EX", "lat": 53.447886918783404, "lon": -2.268859498, "category": "community_youth", "confidence": "low" }, "geometry": { "type": "Point", "coordinates": [ -2.268859498, 53.447886918783404 ] } },
{ "type": "Feature", "properties": { "name": "Wallasey Arts Youth 20", "postcode": "CH44 2ET", "lat": 53.418841747405779, "lon": -3.035242154, "category": "arts_youth", "confidence": "medium" }, "geometry": { "type": "Point", "coordinates": [ -3.035242154, 53.418841747405779 ] } },
{ "type": "Feature", "properties": { "name": "Moreton Youth Centre 21", "postcode": "CH46 8SA", "lat": 53.409933762957792, "lon": -3.117849849, "category": "youth_centre", "confidence": "low" }, "geometry": { "type": "Point", "coordinates": [ -3.117849849, 53.409933762957792 ] } },
{ "type": "Feature", "properties": { "name": "Openshaw Arts Youth 22", "postcode": "M11 1HF", "lat": 53.472712679118089, "lon": -2.195111982, "category": "arts_youth", "confidence": "high" }, "geometry": { "type": "Point", "coordinates": [ -2.195111982, 53.472712679118089 ] } },
{ "type": "Feature", "properties": { "name": "Greasby Youth Centre 23", "postcode": "CH49 3NN", "lat": 53.368860831818232, "lon": -3.124661423, "category": "youth_centre", "confidence": "high" }, "geometry": { "type": "Point", "coordinates": [ -3.124661423, 53.368860831818232 ] } },
{ "type": "Feature", "properties": { "name": "Nantwich Mentoring 24", "postcode": "CW5 5RQ", "lat": 53.05884194, "lon": -2.514580547, "category": "mentoring", "confidence": "low" }, "geometry": { "type": "Point", "coordinates": [ -2.514580547, 53.05884194 ] } },
{ "type": "Feature", "properties": { "name": "Middlewich Send Support 25", "postcode": "CW10 9BX", "lat": 53.193636488260573, "lon": -2.437307568, "category": "SEND_support", "confidence": "low" }, "geometry": { "type": "Point", "coordinates": [ -2.437307568, 53.193636488260573 ] } },
{ "type": "Feature", "properties": { "name": "Eccles Faith Youth 26", "postcode": "M30 0DL", "lat": 53.478043686964334, "lon": -2.363405468, "category": "faith_youth", "confidence": "medium" }, "geometry": { "type": "Point", "coordinates": [ -2.363405468, 53.478043686964334 ] } },
{ "type": "Feature", "properties": { "name": "Hoylake Arts Youth 27", "postcode": "CH47 2DH", "lat": 53.381508895314504, "lon": -3.175860839, "category": "arts_youth", "confidence": "high" }, "geometry": { "type": "Point", "coordinates": [ -3.175860839, 53.381508895314504 ] } },
{ "type": "Feature", "properties": { "name": "Crewe Sports Youth 28", "postcode": "CW1 2DA", "lat": 53.099091486137048, "lon": -2.433549916, "category": "sports_youth", "confidence": "high" }, "geometry": { "type": "Point", "coordinates": [ -2.433549916, 53.099091486137048 ] } },
{ "type": "Feature", "properties": { "name": "Liverpool Arts Youth 29", "postcode": "L1 5DW", "lat": 53.412352705779135, "lon": -2.981868957, "category": "arts_youth", "confidence": "medium" }, "geometry": { "type": "Point", "coordinates": [ -2.981868957, 53.412352705779135 ] } },
{ "type": "Feature", "properties": { "name": "Kensington Send Support 30", "postcode": "L7 8SE", "lat": 53.40158014061911, "lon": -2.964874376, "category": "SEND_support", "confidence": "high" }, "geometry": { "type": "Point", "coordinates": [ -2.964874376, 53.40158014061911 ] } },
{ "type": "Feature", "properties": { "name": "Burnage Sports Youth 31", "postcode": "M19 2WY", "lat": 53.429364368616909, "lon": -2.194932183, "category": "sports_youth", "confidence": "high" }, "geometry": { "type": "Point", "coordinates": [ -2.194932183, 53.429364368616909 ] } },
{ "type": "Feature", "properties": { "name": "Bromborough Arts Youth 32", "postcode": "CH62 2BS", "lat": 53.33725725944079, "lon": -2.98991365, "category": "arts_youth", "confidence": "high" }, "geometry": { "type": "Point", "coordinates": [ -2.98991365, 53.33725725944079 ] } },
{ "type": "Feature", "properties": { "name": "Middlewich Mentoring 33", "postcode": "CW10 9BX", "lat": 53.18036986, "lon": -2.441953927, "category": "mentoring", "confidence": "high" }, "geometry": { "type": "Point", "coordinates": [ -2.441953927, 53.18036986 ] } },
{ "type": "Feature", "properties": { "name": "Widnes Sports Youth 34", "postcode": "WA8 6DX", "lat": 53.359650331752682, "lon": -2.726981228, "category": "sports_youth", "confidence": "low" }, "geometry": { "type": "Point", "coordinates": [ -2.726981228, 53.359650331752682 ] } },
{ "type": "Feature", "properties": { "name": "West Kirby Sports Youth 35", "postcode": "CH48 4HX", "lat": 53.37611233622966, "lon": -3.1843004, "category": "sports_youth", "confidence": "low" }, "geometry": { "type": "Point", "coordinates": [ -3.1843004, 53.37611233622966 ] } },
{ "type": "Feature", "properties": { "name": "Hulme Youth Centre 36", "postcode": "M15 5TQ", "lat": 53.470106415436739, "lon": -2.257592561, "category": "youth_centre", "confidence": "low" }, "geometry": { "type": "Point", "coordinates": [ -2.257592561, 53.470106415436739 ] } },
{ "type": "Feature", "properties": { "name": "Widnes Arts Youth 37", "postcode": "WA8 6DX", "lat": 53.368893249012864, "lon": -2.727334039, "category": "arts_youth", "confidence": "medium" }, "geometry": { "type": "Point", "coordinates": [ -2.727334039, 53.368893249012864 ] } },
{ "type": "Feature", "properties": { "name": "Burnage Faith Youth 38", "postcode": "M19 2WY", "lat": 53.441040472435922, "lon": -2.181754127, "category": "faith_youth", "confidence": "medium" }, "geometry": { "type": "Point", "coordinates": [ -2.181754127, 53.441040472435922 ] } },
{ "type": "Feature", "properties": { "name": "Moreton Sports Youth 39", "postcode": "CH46 8SA", "lat": 53.416980146456865, "lon": -3.113501012, "category": "sports_youth", "confidence": "medium" }, "geometry": { "type": "Point", "coordinates": [ -3.113501012, 53.416980146456865 ] } },
{ "type": "Feature", "properties": { "name": "St Helens Arts Youth 40", "postcode": "WA10 1UF", "lat": 53.449168150289331, "lon": -2.730392663, "category": "arts_youth", "confidence": "low" }, "geometry": { "type": "Point", "coordinates": [ -2.730392663, 53.449168150289331 ] } },
{ "type": "Feature", "properties": { "name": "Chorlton Arts Youth 41", "postcode": "M21 8BF", "lat": 53.434162388821633, "lon": -2.280359229, "category": "arts_youth", "confidence": "medium" }, "geometry": { "type": "Point", "coordinates": [ -2.280359229, 53.434162388821633 ] } },
{ "type": "Feature", "properties": { "name": "St Helens Community Youth 42", "postcode": "WA10 1UF", "lat": 53.45587613, "lon": -2.727344562, "category": "community_youth", "confidence": "medium" }, "geometry": { "type": "Point", "coordinates": [ -2.727344562, 53.45587613 ] } },
{ "type": "Feature", "properties": { "name": "Ellesmere Port Community Youth 43", "postcode": "CH65 2ER", "lat": 53.27731603232246, "lon": -2.898185709, "category": "community_youth", "confidence": "medium" }, "geometry": { "type": "Point", "coordinates": [ -2.898185709, 53.27731603232246 ] } },
{ "type": "Feature", "properties": { "name": "Liverpool Community Youth 44", "postcode": "L1 5DW", "lat": 53.40940258350367, "lon": -2.975991205, "category": "community_youth", "confidence": "medium" }, "geometry": { "type": "Point", "coordinates": [ -2.975991205, 53.40940258350367 ] } },
{ "type": "Feature", "properties": { "name": "Moss Side Mentoring 45", "postcode": "M16 7EX", "lat": 53.447035810318553, "lon": -2.270287936, "category": "mentoring", "confidence": "low" }, "geometry": { "type": "Point", "coordinates": [ -2.270287936, 53.447035810318553 ] } },
{ "type": "Feature", "properties": { "name": "Moreton Arts Youth 46", "postcode": "CH46 8SA", "lat": 53.410462079116513, "lon": -3.101715927, "category": "arts_youth", "confidence": "low" }, "geometry": { "type": "Point", "coordinates": [ -3.101715927, 53.410462079116513 ] } },
{ "type": "Feature", "properties": { "name": "Kensington Faith Youth 47", "postcode": "L7 8SE", "lat": 53.398652284665459, "lon": -2.948214215, "category": "faith_youth", "confidence": "high" }, "geometry": { "type": "Point", "coordinates": [ -2.948214215, 53.398652284665459 ] } },
{ "type": "Feature", "properties": { "name": "Bromborough Mentoring 48", "postcode": "CH62 2BS", "lat": 53.325584775488878, "lon": -2.997596161, "category": "mentoring", "confidence": "medium" }, "geometry": { "type": "Point", "coordinates": [ -2.997596161, 53.325584775488878 ] } },
{ "type": "Feature", "properties": { "name": "Northwich Send Support 49", "postcode": "CW9 5BS", "lat": 53.258016270629128, "lon": -2.522075538, "category": "SEND_support", "confidence": "low" }, "geometry": { "type": "Point", "coordinates": [ -2.522075538, 53.258016270629128 ] } },
{ "type": "Feature", "properties": { "name": "Chorlton Community Youth 50", "postcode": "M21 8BF", "lat": 53.445797937964208, "lon": -2.279784075, "category": "community_youth", "confidence": "medium" }, "geometry": { "type": "Point", "coordinates": [ -2.279784075, 53.445797937964208 ] } },
{ "type": "Feature", "properties": { "name": "Widnes Mentoring 51", "postcode": "WA8 6DX", "lat": 53.355464463111332, "lon": -2.722508638, "category": "mentoring", "confidence": "low" }, "geometry": { "type": "Point", "coordinates": [ -2.722508638, 53.355464463111332 ] } },
{ "type": "Feature", "properties": { "name": "Moss Side Arts Youth 52", "postcode": "M16 7EX", "lat": 53.45343357531015, "lon": -2.270795016, "category": "arts_youth", "confidence": "low" }, "geometry": { "type": "Point", "coordinates": [ -2.270795016, 53.45343357531015 ] } },
{ "type": "Feature", "properties": { "name": "Crewe Faith Youth 53", "postcode": "CW1 2DA", "lat": 53.098166376232555, "lon": -2.4501802, "category": "faith_youth", "confidence": "medium" }, "geometry": { "type": "Point", "coordinates": [ -2.4501802, 53.098166376232555 ] } },
{ "type": "Feature", "properties": { "name": "Greasby Mentoring 54", "postcode": "CH49 3NN", "lat": 53.368099287115868, "lon": -3.129941629, "category": "mentoring", "confidence": "medium" }, "geometry": { "type": "Point", "coordinates": [ -3.129941629, 53.368099287115868 ] } },
{ "type": "Feature", "properties": { "name": "Frodsham Youth Centre 55", "postcode": "WA6 7QN", "lat": 53.271910989138711, "lon": -2.713933836, "category": "youth_centre", "confidence": "high" }, "geometry": { "type": "Point", "coordinates": [ -2.713933836, 53.271910989138711 ] } },
{ "type": "Feature", "properties": { "name": "Allerton Send Support 56", "postcode": "L18 1ED", "lat": 53.383460939685278, "lon": -2.909657481, "category": "SEND_support", "confidence": "medium" }, "geometry": { "type": "Point", "coordinates": [ -2.909657481, 53.383460939685278 ] } },
{ "type": "Feature", "properties": { "name": "Liverpool Mentoring 57", "postcode": "L1 5DW", "lat": 53.397334027489215, "lon": -2.976706137, "category": "mentoring", "confidence": "high" }, "geometry": { "type": "Point", "coordinates": [ -2.976706137, 53.397334027489215 ] } },
{ "type": "Feature", "properties": { "name": "Allerton Sports Youth 58", "postcode": "L18 1ED", "lat": 53.383400345116478, "lon": -2.912106152, "category": "sports_youth", "confidence": "high" }, "geometry": { "type": "Point", "coordinates": [ -2.912106152, 53.383400345116478 ] } },
{ "type": "Feature", "properties": { "name": "Moss Side Mentoring 59", "postcode": "M16 7EX", "lat": 53.447161914672655, "lon": -2.28348739, "category": "mentoring", "confidence": "medium" }, "geometry": { "type": "Point", "coordinates": [ -2.28348739, 53.447161914672655 ] } },
{ "type": "Feature", "properties": { "name": "Old Swan Arts Youth 60", "postcode": "L13 5XA", "lat": 53.414151864119475, "lon": -2.928050181, "category": "arts_youth", "confidence": "medium" }, "geometry": { "type": "Point", "coordinates": [ -2.928050181, 53.414151864119475 ] } },
{ "type": "Feature", "properties": { "name": "Warrington Youth Centre 61", "postcode": "WA1 1UH", "lat": 53.391935510189775, "lon": -2.589751685, "category": "youth_centre", "confidence": "low" }, "geometry": { "type": "Point", "coordinates": [ -2.589751685, 53.391935510189775 ] } },
{ "type": "Feature", "properties": { "name": "Great Sankey Faith Youth 62", "postcode": "WA5 1HG", "lat": 53.407414119665013, "lon": -2.655863924, "category": "faith_youth", "confidence": "low" }, "geometry": { "type": "Point", "coordinates": [ -2.655863924, 53.407414119665013 ] } },
{ "type": "Feature", "properties": { "name": "Northwich Community Youth 63", "postcode": "CW9 5BS", "lat": 53.24856469096418, "lon": -2.518138669, "category": "community_youth", "confidence": "low" }, "geometry": { "type": "Point", "coordinates": [ -2.518138669, 53.24856469096418 ] } },
{ "type": "Feature", "properties": { "name": "Chorlton Mentoring 64", "postcode": "M21 8BF", "lat": 53.437667235141838, "lon": -2.269905715, "category": "mentoring", "confidence": "low" }, "geometry": { "type": "Point", "coordinates": [ -2.269905715, 53.437667235141838 ] } },
{ "type": "Feature", "properties": { "name": "West Kirby Sports Youth 65", "postcode": "CH48 4HX", "lat": 53.369818146432614, "lon": -3.184907929, "category": "sports_youth", "confidence": "high" }, "geometry": { "type": "Point", "coordinates": [ -3.184907929, 53.369818146432614 ] } },
{ "type": "Feature", "properties": { "name": "Burnage Sports Youth 66", "postcode": "M19 2WY", "lat": 53.436021004137423, "lon": -2.195191244, "category": "sports_youth", "confidence": "high" }, "geometry": { "type": "Point", "coordinates": [ -2.195191244, 53.436021004137423 ] } },
{ "type": "Feature", "properties": { "name": "Old Swan Youth Centre 67", "postcode": "L13 5XA", "lat": 53.40174752, "lon": -2.931038496, "category": "youth_centre", "confidence": "medium" }, "geometry": { "type": "Point", "coordinates": [ -2.931038496, 53.40174752 ] } },
{ "type": "Feature", "properties": { "name": "Widnes Arts Youth 68", "postcode": "WA8 6DX", "lat": 53.373078004135472, "lon": -2.733496168, "category": "arts_youth", "confidence": "medium" }, "geometry": { "type": "Point", "coordinates": [ -2.733496168, 53.373078004135472 ] } },
{ "type": "Feature", "properties": { "name": "Old Swan Youth Centre 69", "postcode": "L13 5XA", "lat": 53.415075865123782, "lon": -2.939464779, "category": "youth_centre", "confidence": "low" }, "geometry": { "type": "Point", "coordinates": [ -2.939464779, 53.415075865123782 ] } },
{ "type": "Feature", "properties": { "name": "Allerton Mentoring 70", "postcode": "L18 1ED", "lat": 53.374964253023222, "lon": -2.904047546, "category": "mentoring", "confidence": "high" }, "geometry": { "type": "Point", "coordinates": [ -2.904047546, 53.374964253023222 ] } },
{ "type": "Feature", "properties": { "name": "Middlewich Mentoring 71", "postcode": "CW10 9BX", "lat": 53.188044120762157, "lon": -2.447453504, "category": "mentoring", "confidence": "medium" }, "geometry": { "type": "Point", "coordinates": [ -2.447453504, 53.188044120762157 ] } },
{ "type": "Feature", "properties": { "name": "Winsford Faith Youth 72", "postcode": "CW7 1BA", "lat": 53.182680091853115, "lon": -2.527699946, "category": "faith_youth", "confidence": "high" }, "geometry": { "type": "Point", "coordinates": [ -2.527699946, 53.182680091853115 ] } },
{ "type": "Feature", "properties": { "name": "Hoylake Faith Youth 73", "postcode": "CH47 2DH", "lat": 53.381122425253317, "lon": -3.170831895, "category": "faith_youth", "confidence": "low" }, "geometry": { "type": "Point", "coordinates": [ -3.170831895, 53.381122425253317 ] } },
{ "type": "Feature", "properties": { "name": "Old Swan Youth Centre 74", "postcode": "L13 5XA", "lat": 53.402028416601155, "lon": -2.924268476, "category": "youth_centre", "confidence": "low" }, "geometry": { "type": "Point", "coordinates": [ -2.924268476, 53.402028416601155 ] } },
{ "type": "Feature", "properties": { "name": "Great Sankey Community Youth 75", "postcode": "WA5 1HG", "lat": 53.408045184494043, "lon": -2.671570187, "category": "community_youth", "confidence": "low" }, "geometry": { "type": "Point", "coordinates": [ -2.671570187, 53.408045184494043 ] } },
{ "type": "Feature", "properties": { "name": "Crewe Arts Youth 76", "postcode": "CW1 2DA", "lat": 53.1048803, "lon": -2.435978841, "category": "arts_youth", "confidence": "low" }, "geometry": { "type": "Point", "coordinates": [ -2.435978841, 53.1048803 ] } },
{ "type": "Feature", "properties": { "name": "Crewe Faith Youth 77", "postcode": "CW1 2DA", "lat": 53.095510463528825, "lon": -2.444302117, "category": "faith_youth", "confidence": "high" }, "geometry": { "type": "Point", "coordinates": [ -2.444302117, 53.095510463528825 ] } },
{ "type": "Feature", "properties": { "name": "Middlewich Faith Youth 78", "postcode": "CW10 9BX", "lat": 53.199424953928421, "lon": -2.450488177, "category": "faith_youth", "confidence": "low" }, "geometry": { "type": "Point", "coordinates": [ -2.450488177, 53.199424953928421 ] } },
{ "type": "Feature", "properties": { "name": "Formby Send Support 79", "postcode": "L37 4AF", "lat": 53.558229504140648, "lon": -3.080362646, "category": "SEND_support", "confidence": "high" }, "geometry": { "type": "Point", "coordinates": [ -3.080362646, 53.558229504140648 ] } },
{ "type": "Feature", "properties": { "name": "Manchester Send Support 80", "postcode": "M1 5AN", "lat": 53.485577858663369, "lon": -2.253907523, "category": "SEND_support", "confidence": "high" }, "geometry": { "type": "Point", "coordinates": [ -2.253907523, 53.485577858663369 ] } },
{ "type": "Feature", "properties": { "name": "Birkenhead Youth Centre 81", "postcode": "CH41 5EU", "lat": 53.399964979870518, "lon": -3.016356464, "category": "youth_centre", "confidence": "medium" }, "geometry": { "type": "Point", "coordinates": [ -3.016356464, 53.399964979870518 ] } },
{ "type": "Feature", "properties": { "name": "Winsford Community Youth 82", "postcode": "CW7 1BA", "lat": 53.185882603558611, "lon": -2.521402326, "category": "community_youth", "confidence": "high" }, "geometry": { "type": "Point", "coordinates": [ -2.521402326, 53.185882603558611 ] } },
{ "type": "Feature", "properties": { "name": "Warrington Mentoring 83", "postcode": "WA1 1UH", "lat": 53.397834999873986, "lon": -2.587892739, "category": "mentoring", "confidence": "low" }, "geometry": { "type": "Point", "coordinates": [ -2.587892739, 53.397834999873986 ] } },
{ "type": "Feature", "properties": { "name": "Hoylake Sports Youth 84", "postcode": "CH47 2DH", "lat": 53.384167858276435, "lon": -3.173100411, "category": "sports_youth", "confidence": "medium" }, "geometry": { "type": "Point", "coordinates": [ -3.173100411, 53.384167858276435 ] } },
{ "type": "Feature", "properties": { "name": "Hulme Arts Youth 85", "postcode": "M15 5TQ", "lat": 53.468795112353632, "lon": -2.261333735, "category": "arts_youth", "confidence": "high" }, "geometry": { "type": "Point", "coordinates": [ -2.261333735, 53.468795112353632 ] } },
{ "type": "Feature", "properties": { "name": "Openshaw Send Support 86", "postcode": "M11 1HF", "lat": 53.481742889915594, "lon": -2.184135615, "category": "SEND_support", "confidence": "high" }, "geometry": { "type": "Point", "coordinates": [ -2.184135615, 53.481742889915594 ] } },
{ "type": "Feature", "properties": { "name": "Bootle Mentoring 87", "postcode": "L20 3ER", "lat": 53.456564874215076, "lon": -2.982681806, "category": "mentoring", "confidence": "low" }, "geometry": { "type": "Point", "coordinates": [ -2.982681806, 53.456564874215076 ] } },
{ "type": "Feature", "properties": { "name": "Runcorn Faith Youth 88", "postcode": "WA7 2EU", "lat": 53.333332318696655, "lon": -2.699515059, "category": "faith_youth", "confidence": "low" }, "geometry": { "type": "Point", "coordinates": [ -2.699515059, 53.333332318696655 ] } },
{ "type": "Feature", "properties": { "name": "Eccles Youth Centre 89", "postcode": "M30 0DL", "lat": 53.473124867710141, "lon": -2.359447726, "category": "youth_centre", "confidence": "low" }, "geometry": { "type": "Point", "coordinates": [ -2.359447726, 53.473124867710141 ] } },
{ "type": "Feature", "properties": { "name": "Sandbach Mentoring 90", "postcode": "CW11 1BA", "lat": 53.154512720541021, "lon": -2.363805738, "category": "mentoring", "confidence": "medium" }, "geometry": { "type": "Point", "coordinates": [ -2.363805738, 53.154512720541021 ] } },
{ "type": "Feature", "properties": { "name": "Sandbach Community Youth 91", "postcode": "CW11 1BA", "lat": 53.150655239402774, "lon": -2.36869983, "category": "community_youth", "confidence": "medium" }, "geometry": { "type": "Point", "coordinates": [ -2.36869983, 53.150655239402774 ] } },
{ "type": "Feature", "properties": { "name": "Kensington Sports Youth 92", "postcode": "L7 8SE", "lat": 53.393636498932011, "lon": -2.949913762, "category": "sports_youth", "confidence": "low" }, "geometry": { "type": "Point", "coordinates": [ -2.949913762, 53.393636498932011 ] } },
{ "type": "Feature", "properties": { "name": "Great Sankey Sports Youth 93", "postcode": "WA5 1HG", "lat": 53.394483162672564, "lon": -2.670098434, "category": "sports_youth", "confidence": "low" }, "geometry": { "type": "Point", "coordinates": [ -2.670098434, 53.394483162672564 ] } },
{ "type": "Feature", "properties": { "name": "Prestwich Mentoring 94", "postcode": "M25 1AN", "lat": 53.516995426196843, "lon": -2.288545066, "category": "mentoring", "confidence": "high" }, "geometry": { "type": "Point", "coordinates": [ -2.288545066, 53.516995426196843 ] } },
{ "type": "Feature", "properties": { "name": "Openshaw Faith Youth 95", "postcode": "M11 1HF", "lat": 53.478963144851456, "lon": -2.181132833, "category": "faith_youth", "confidence": "medium" }, "geometry": { "type": "Point", "coordinates": [ -2.181132833, 53.478963144851456 ] } },
{ "type": "Feature", "properties": { "name": "Hulme Arts Youth 96", "postcode": "M15 5TQ", "lat": 53.457226794487688, "lon": -2.262088565, "category": "arts_youth", "confidence": "low" }, "geometry": { "type": "Point", "coordinates": [ -2.262088565, 53.457226794487688 ] } },
{ "type": "Feature", "properties": { "name": "Congleton Community Youth 97", "postcode": "CW12 1ET", "lat": 53.158727664844861, "lon": -2.212142081, "category": "community_youth", "confidence": "low" }, "geometry": { "type": "Point", "coordinates": [ -2.212142081, 53.158727664844861 ] } },
{ "type": "Feature", "properties": { "name": "Moss Side Arts Youth 98", "postcode": "M16 7EX", "lat": 53.458009993877496, "lon": -2.277121297, "category": "arts_youth", "confidence": "low" }, "geometry": { "type": "Point", "coordinates": [ -2.277121297, 53.458009993877496 ] } },
{ "type": "Feature", "properties": { "name": "Wallasey Faith Youth 99", "postcode": "CH44 2ET", "lat": 53.420496652277151, "lon": -3.042013201, "category": "faith_youth", "confidence": "low" }, "geometry": { "type": "Point", "coordinates": [ -3.042013201, 53.420496652277151 ] } },
{ "type": "Feature", "properties": { "name": "Middlewich Faith Youth 100", "postcode": "CW10 9BX", "lat": 53.190512414916732, "lon": -2.436447577, "category": "faith_youth", "confidence": "low" }, "geometry": { "type": "Point", "coordinates": [ -2.436447577, 53.190512414916732 ] } },
{ "type": "Feature", "properties": { "name": "Heswall Arts Youth 101", "postcode": "CH60 0AF", "lat": 53.317676366450421, "lon": -3.099664984, "category": "arts_youth", "confidence": "high" }, "geometry": { "type": "Point", "coordinates": [ -3.099664984, 53.317676366450421 ] } },
{ "type": "Feature", "properties": { "name": "Allerton Youth Centre 102", "postcode": "L18 1ED", "lat": 53.370877717689204, "lon": -2.9142714, "category": "youth_centre", "confidence": "low" }, "geometry": { "type": "Point", "coordinates": [ -2.9142714, 53.370877717689204 ] } },
{ "type": "Feature", "properties": { "name": "Urmston Sports Youth 103", "postcode": "M41 6QT", "lat": 53.445640840885858, "lon": -2.352486093, "category": "sports_youth", "confidence": "low" }, "geometry": { "type": "Point", "coordinates": [ -2.352486093, 53.445640840885858 ] } },
{ "type": "Feature", "properties": { "name": "Bootle Mentoring 104", "postcode": "L20 3ER", "lat": 53.459920910018745, "lon": -2.997127153, "category": "mentoring", "confidence": "high" }, "geometry": { "type": "Point", "coordinates": [ -2.997127153, 53.459920910018745 ] } },
{ "type": "Feature", "properties": { "name": "Wallasey Send Support 105", "postcode": "CH44 2ET", "lat": 53.418283879184067, "lon": -3.036613587, "category": "SEND_support", "confidence": "medium" }, "geometry": { "type": "Point", "coordinates": [ -3.036613587, 53.418283879184067 ] } },
{ "type": "Feature", "properties": { "name": "Kensington Send Support 106", "postcode": "L7 8SE", "lat": 53.397974026523123, "lon": -2.949961937, "category": "SEND_support", "confidence": "high" }, "geometry": { "type": "Point", "coordinates": [ -2.949961937, 53.397974026523123 ] } },
{ "type": "Feature", "properties": { "name": "Formby Community Youth 107", "postcode": "L37 4AF", "lat": 53.556211731342415, "lon": -3.079828563, "category": "community_youth", "confidence": "medium" }, "geometry": { "type": "Point", "coordinates": [ -3.079828563, 53.556211731342415 ] } },
{ "type": "Feature", "properties": { "name": "West Kirby Mentoring 108", "postcode": "CH48 4HX", "lat": 53.369881000345927, "lon": -3.192276228, "category": "mentoring", "confidence": "medium" }, "geometry": { "type": "Point", "coordinates": [ -3.192276228, 53.369881000345927 ] } },
{ "type": "Feature", "properties": { "name": "Ellesmere Port Sports Youth 109", "postcode": "CH65 2ER", "lat": 53.282208030646977, "lon": -2.908198701, "category": "sports_youth", "confidence": "low" }, "geometry": { "type": "Point", "coordinates": [ -2.908198701, 53.282208030646977 ] } },
{ "type": "Feature", "properties": { "name": "Everton Mentoring 110", "postcode": "L5 5AF", "lat": 53.425858665022218, "lon": -2.966291302, "category": "mentoring", "confidence": "low" }, "geometry": { "type": "Point", "coordinates": [ -2.966291302, 53.425858665022218 ] } },
{ "type": "Feature", "properties": { "name": "Moreton Sports Youth 111", "postcode": "CH46 8SA", "lat": 53.399215036580379, "lon": -3.11459208, "category": "sports_youth", "confidence": "medium" }, "geometry": { "type": "Point", "coordinates": [ -3.11459208, 53.399215036580379 ] } },
{ "type": "Feature", "properties": { "name": "Moreton Send Support 112", "postcode": "CH46 8SA", "lat": 53.412064522345588, "lon": -3.113342679, "category": "SEND_support", "confidence": "high" }, "geometry": { "type": "Point", "coordinates": [ -3.113342679, 53.412064522345588 ] } },
{ "type": "Feature", "properties": { "name": "Everton Faith Youth 113", "postcode": "L5 5AF", "lat": 53.434094291574944, "lon": -2.968033872, "category": "faith_youth", "confidence": "medium" }, "geometry": { "type": "Point", "coordinates": [ -2.968033872, 53.434094291574944 ] } },
{ "type": "Feature", "properties": { "name": "Nantwich Youth Centre 114", "postcode": "CW5 5RQ", "lat": 53.071068890455926, "lon": -2.512537937, "category": "youth_centre", "confidence": "medium" }, "geometry": { "type": "Point", "coordinates": [ -2.512537937, 53.071068890455926 ] } },
{ "type": "Feature", "properties": { "name": "Bromborough Youth Centre 115", "postcode": "CH62 2BS", "lat": 53.329284364513342, "lon": -2.988832678, "category": "youth_centre", "confidence": "low" }, "geometry": { "type": "Point", "coordinates": [ -2.988832678, 53.329284364513342 ] } },
{ "type": "Feature", "properties": { "name": "Chorlton Faith Youth 116", "postcode": "M21 8BF", "lat": 53.446752743871087, "lon": -2.278318375, "category": "faith_youth", "confidence": "medium" }, "geometry": { "type": "Point", "coordinates": [ -2.278318375, 53.446752743871087 ] } },
{ "type": "Feature", "properties": { "name": "Everton Arts Youth 117", "postcode": "L5 5AF", "lat": 53.439907280149519, "lon": -2.973550887, "category": "arts_youth", "confidence": "medium" }, "geometry": { "type": "Point", "coordinates": [ -2.973550887, 53.439907280149519 ] } },
{ "type": "Feature", "properties": { "name": "Chester Send Support 118", "postcode": "CH1 2BG", "lat": 53.19714355, "lon": -2.896875499, "category": "SEND_support", "confidence": "low" }, "geometry": { "type": "Point", "coordinates": [ -2.896875499, 53.19714355 ] } },
{ "type": "Feature", "properties": { "name": "Formby Sports Youth 119", "postcode": "L37 4AF", "lat": 53.547529663070655, "lon": -3.077087798, "category": "sports_youth", "confidence": "low" }, "geometry": { "type": "Point", "coordinates": [ -3.077087798, 53.547529663070655 ] } },
{ "type": "Feature", "properties": { "name": "Walton Send Support 120", "postcode": "L9 1NB", "lat": 53.447277238688535, "lon": -2.960390668, "category": "SEND_support", "confidence": "medium" }, "geometry": { "type": "Point", "coordinates": [ -2.960390668, 53.447277238688535 ] } },
{ "type": "Feature", "properties": { "name": "Congleton Mentoring 121", "postcode": "CW12 1ET", "lat": 53.16904380442589, "lon": -2.219871813, "category": "mentoring", "confidence": "low" }, "geometry": { "type": "Point", "coordinates": [ -2.219871813, 53.16904380442589 ] } },
{ "type": "Feature", "properties": { "name": "Kensington Send Support 122", "postcode": "L7 8SE", "lat": 53.40024394, "lon": -2.962138458, "category": "SEND_support", "confidence": "medium" }, "geometry": { "type": "Point", "coordinates": [ -2.962138458, 53.40024394 ] } },
{ "type": "Feature", "properties": { "name": "Runcorn Mentoring 123", "postcode": "WA7 2EU", "lat": 53.322514376492826, "lon": -2.700644648, "category": "mentoring", "confidence": "high" }, "geometry": { "type": "Point", "coordinates": [ -2.700644648, 53.322514376492826 ] } },
{ "type": "Feature", "properties": { "name": "Longsight Mentoring 124", "postcode": "M13 9TQ", "lat": 53.463671874832059, "lon": -2.216244088, "category": "mentoring", "confidence": "low" }, "geometry": { "type": "Point", "coordinates": [ -2.216244088, 53.463671874832059 ] } },
{ "type": "Feature", "properties": { "name": "Warrington Send Support 125", "postcode": "WA1 1UH", "lat": 53.389105700747038, "lon": -2.606505229, "category": "SEND_support", "confidence": "high" }, "geometry": { "type": "Point", "coordinates": [ -2.606505229, 53.389105700747038 ] } },
{ "type": "Feature", "properties": { "name": "Ellesmere Port Arts Youth 126", "postcode": "CH65 2ER", "lat": 53.279072421180757, "lon": -2.899397389, "category": "arts_youth", "confidence": "medium" }, "geometry": { "type": "Point", "coordinates": [ -2.899397389, 53.279072421180757 ] } },
{ "type": "Feature", "properties": { "name": "Kensington Arts Youth 127", "postcode": "L7 8SE", "lat": 53.412387738128253, "lon": -2.964616014, "category": "arts_youth", "confidence": "low" }, "geometry": { "type": "Point", "coordinates": [ -2.964616014, 53.412387738128253 ] } },
{ "type": "Feature", "properties": { "name": "Formby Youth Centre 128", "postcode": "L37 4AF", "lat": 53.549639820010881, "lon": -3.061485022, "category": "youth_centre", "confidence": "low" }, "geometry": { "type": "Point", "coordinates": [ -3.061485022, 53.549639820010881 ] } },
{ "type": "Feature", "properties": { "name": "Runcorn Arts Youth 129", "postcode": "WA7 2EU", "lat": 53.334811226859365, "lon": -2.704339376, "category": "arts_youth", "confidence": "low" }, "geometry": { "type": "Point", "coordinates": [ -2.704339376, 53.334811226859365 ] } },
{ "type": "Feature", "properties": { "name": "Northwich Mentoring 130", "postcode": "CW9 5BS", "lat": 53.265328694226575, "lon": -2.516470702, "category": "mentoring", "confidence": "medium" }, "geometry": { "type": "Point", "coordinates": [ -2.516470702, 53.265328694226575 ] } },
{ "type": "Feature", "properties": { "name": "Walton Sports Youth 131", "postcode": "L9 1NB", "lat": 53.449856556839741, "lon": -2.962118088, "category": "sports_youth", "confidence": "high" }, "geometry": { "type": "Point", "coordinates": [ -2.962118088, 53.449856556839741 ] } },
{ "type": "Feature", "properties": { "name": "Great Sankey Arts Youth 132", "postcode": "WA5 1HG", "lat": 53.401186966564296, "lon": -2.656657127, "category": "arts_youth", "confidence": "high" }, "geometry": { "type": "Point", "coordinates": [ -2.656657127, 53.401186966564296 ] } },
{ "type": "Feature", "properties": { "name": "Moss Side Youth Centre 133", "postcode": "M16 7EX", "lat": 53.458770601318314, "lon": -2.285638761, "category": "youth_centre", "confidence": "medium" }, "geometry": { "type": "Point", "coordinates": [ -2.285638761, 53.458770601318314 ] } },
{ "type": "Feature", "properties": { "name": "Urmston Community Youth 134", "postcode": "M41 6QT", "lat": 53.454775942902955, "lon": -2.369578229, "category": "community_youth", "confidence": "medium" }, "geometry": { "type": "Point", "coordinates": [ -2.369578229, 53.454775942902955 ] } },
{ "type": "Feature", "properties": { "name": "St Helens Faith Youth 135", "postcode": "WA10 1UF", "lat": 53.456685283027966, "lon": -2.742853246, "category": "faith_youth", "confidence": "high" }, "geometry": { "type": "Point", "coordinates": [ -2.742853246, 53.456685283027966 ] } },
{ "type": "Feature", "properties": { "name": "Liverpool Send Support 136", "postcode": "L1 5DW", "lat": 53.408040131269992, "lon": -2.978942371, "category": "SEND_support", "confidence": "medium" }, "geometry": { "type": "Point", "coordinates": [ -2.978942371, 53.408040131269992 ] } },
{ "type": "Feature", "properties": { "name": "Prestwich Youth Centre 137", "postcode": "M25 1AN", "lat": 53.52061508, "lon": -2.272580885, "category": "youth_centre", "confidence": "low" }, "geometry": { "type": "Point", "coordinates": [ -2.272580885, 53.52061508 ] } },
{ "type": "Feature", "properties": { "name": "Northwich Faith Youth 138", "postcode": "CW9 5BS", "lat": 53.249774920321954, "lon": -2.522493027, "category": "faith_youth", "confidence": "medium" }, "geometry": { "type": "Point", "coordinates": [ -2.522493027, 53.249774920321954 ] } },
{ "type": "Feature", "properties": { "name": "Openshaw Mentoring 139", "postcode": "M11 1HF", "lat": 53.474249643742041, "lon": -2.19019079, "category": "mentoring", "confidence": "low" }, "geometry": { "type": "Point", "coordinates": [ -2.19019079, 53.474249643742041 ] } },
{ "type": "Feature", "properties": { "name": "Hulme Mentoring 140", "postcode": "M15 5TQ", "lat": 53.46734751, "lon": -2.262829315, "category": "mentoring", "confidence": "medium" }, "geometry": { "type": "Point", "coordinates": [ -2.262829315, 53.46734751 ] } },
{ "type": "Feature", "properties": { "name": "Moreton Arts Youth 141", "postcode": "CH46 8SA", "lat": 53.414116556172011, "lon": -3.116090623, "category": "arts_youth", "confidence": "medium" }, "geometry": { "type": "Point", "coordinates": [ -3.116090623, 53.414116556172011 ] } },
{ "type": "Feature", "properties": { "name": "St Helens Faith Youth 142", "postcode": "WA10 1UF", "lat": 53.453107177868496, "lon": -2.733553943, "category": "faith_youth", "confidence": "low" }, "geometry": { "type": "Point", "coordinates": [ -2.733553943, 53.453107177868496 ] } },
{ "type": "Feature", "properties": { "name": "Winsford Arts Youth 143", "postcode": "CW7 1BA", "lat": 53.187689497448574, "lon": -2.518074988, "category": "arts_youth", "confidence": "high" }, "geometry": { "type": "Point", "coordinates": [ -2.518074988, 53.187689497448574 ] } },
{ "type": "Feature", "properties": { "name": "Heswall Community Youth 144", "postcode": "CH60 0AF", "lat": 53.324204908438865, "lon": -3.095096038, "category": "community_youth", "confidence": "medium" }, "geometry": { "type": "Point", "coordinates": [ -3.095096038, 53.324204908438865 ] } },
{ "type": "Feature", "properties": { "name": "Warrington Community Youth 145", "postcode": "WA1 1UH", "lat": 53.386404523248636, "lon": -2.591155527, "category": "community_youth", "confidence": "low" }, "geometry": { "type": "Point", "coordinates": [ -2.591155527, 53.386404523248636 ] } },
{ "type": "Feature", "properties": { "name": "Chorlton Faith Youth 146", "postcode": "M21 8BF", "lat": 53.446747437988662, "lon": -2.286112904, "category": "faith_youth", "confidence": "high" }, "geometry": { "type": "Point", "coordinates": [ -2.286112904, 53.446747437988662 ] } },
{ "type": "Feature", "properties": { "name": "Eccles Send Support 147", "postcode": "M30 0DL", "lat": 53.489049053020565, "lon": -2.355782171, "category": "SEND_support", "confidence": "medium" }, "geometry": { "type": "Point", "coordinates": [ -2.355782171, 53.489049053020565 ] } },
{ "type": "Feature", "properties": { "name": "Northwich Sports Youth 148", "postcode": "CW9 5BS", "lat": 53.267061955965225, "lon": -2.527264699, "category": "sports_youth", "confidence": "high" }, "geometry": { "type": "Point", "coordinates": [ -2.527264699, 53.267061955965225 ] } },
{ "type": "Feature", "properties": { "name": "Burnage Community Youth 149", "postcode": "M19 2WY", "lat": 53.443625466675265, "lon": -2.193306925, "category": "community_youth", "confidence": "medium" }, "geometry": { "type": "Point", "coordinates": [ -2.193306925, 53.443625466675265 ] } },
{ "type": "Feature", "properties": { "name": "Everton Community Youth 150", "postcode": "L5 5AF", "lat": 53.440842052577544, "lon": -2.967285904, "category": "community_youth", "confidence": "high" }, "geometry": { "type": "Point", "coordinates": [ -2.967285904, 53.440842052577544 ] } },
{ "type": "Feature", "properties": { "name": "Kensington Community Youth 151", "postcode": "L7 8SE", "lat": 53.41137761, "lon": -2.953338022, "category": "community_youth", "confidence": "high" }, "geometry": { "type": "Point", "coordinates": [ -2.953338022, 53.41137761 ] } },
{ "type": "Feature", "properties": { "name": "Great Sankey Sports Youth 152", "postcode": "WA5 1HG", "lat": 53.39188330044761, "lon": -2.672609734, "category": "sports_youth", "confidence": "medium" }, "geometry": { "type": "Point", "coordinates": [ -2.672609734, 53.39188330044761 ] } },
{ "type": "Feature", "properties": { "name": "Longsight Send Support 153", "postcode": "M13 9TQ", "lat": 53.451180198336111, "lon": -2.209669639, "category": "SEND_support", "confidence": "low" }, "geometry": { "type": "Point", "coordinates": [ -2.209669639, 53.451180198336111 ] } },
{ "type": "Feature", "properties": { "name": "Prestwich Send Support 154", "postcode": "M25 1AN", "lat": 53.518596373198861, "lon": -2.27583174, "category": "SEND_support", "confidence": "low" }, "geometry": { "type": "Point", "coordinates": [ -2.27583174, 53.518596373198861 ] } },
{ "type": "Feature", "properties": { "name": "Moss Side Faith Youth 155", "postcode": "M16 7EX", "lat": 53.448858932158224, "lon": -2.284937226, "category": "faith_youth", "confidence": "low" }, "geometry": { "type": "Point", "coordinates": [ -2.284937226, 53.448858932158224 ] } },
{ "type": "Feature", "properties": { "name": "Walton Faith Youth 156", "postcode": "L9 1NB", "lat": 53.459966252054258, "lon": -2.949405496, "category": "faith_youth", "confidence": "high" }, "geometry": { "type": "Point", "coordinates": [ -2.949405496, 53.459966252054258 ] } },
{ "type": "Feature", "properties": { "name": "Hulme Youth Centre 157", "postcode": "M15 5TQ", "lat": 53.46993542334306, "lon": -2.261937741, "category": "youth_centre", "confidence": "medium" }, "geometry": { "type": "Point", "coordinates": [ -2.261937741, 53.46993542334306 ] } },
{ "type": "Feature", "properties": { "name": "Longsight Youth Centre 158", "postcode": "M13 9TQ", "lat": 53.44935542449587, "lon": -2.217612409, "category": "youth_centre", "confidence": "low" }, "geometry": { "type": "Point", "coordinates": [ -2.217612409, 53.44935542449587 ] } },
{ "type": "Feature", "properties": { "name": "Walton Sports Youth 159", "postcode": "L9 1NB", "lat": 53.461983570585225, "lon": -2.947092355, "category": "sports_youth", "confidence": "low" }, "geometry": { "type": "Point", "coordinates": [ -2.947092355, 53.461983570585225 ] } },
{ "type": "Feature", "properties": { "name": "Wallasey Send Support 160", "postcode": "CH44 2ET", "lat": 53.416490714052308, "lon": -3.049099224, "category": "SEND_support", "confidence": "medium" }, "geometry": { "type": "Point", "coordinates": [ -3.049099224, 53.416490714052308 ] } },
{ "type": "Feature", "properties": { "name": "Nantwich Faith Youth 161", "postcode": "CW5 5RQ", "lat": 53.064364284082771, "lon": -2.515022204, "category": "faith_youth", "confidence": "low" }, "geometry": { "type": "Point", "coordinates": [ -2.515022204, 53.064364284082771 ] } },
{ "type": "Feature", "properties": { "name": "Northwich Send Support 162", "postcode": "CW9 5BS", "lat": 53.25567784161322, "lon": -2.51635986, "category": "SEND_support", "confidence": "medium" }, "geometry": { "type": "Point", "coordinates": [ -2.51635986, 53.25567784161322 ] } },
{ "type": "Feature", "properties": { "name": "Sandbach Arts Youth 163", "postcode": "CW11 1BA", "lat": 53.140767706144317, "lon": -2.362086852, "category": "arts_youth", "confidence": "medium" }, "geometry": { "type": "Point", "coordinates": [ -2.362086852, 53.140767706144317 ] } },
{ "type": "Feature", "properties": { "name": "Greasby Faith Youth 164", "postcode": "CH49 3NN", "lat": 53.373189617729174, "lon": -3.132816638, "category": "faith_youth", "confidence": "low" }, "geometry": { "type": "Point", "coordinates": [ -3.132816638, 53.373189617729174 ] } },
{ "type": "Feature", "properties": { "name": "Bromborough Sports Youth 165", "postcode": "CH62 2BS", "lat": 53.334489785540008, "lon": -2.995031321, "category": "sports_youth", "confidence": "medium" }, "geometry": { "type": "Point", "coordinates": [ -2.995031321, 53.334489785540008 ] } },
{ "type": "Feature", "properties": { "name": "Chorlton Community Youth 166", "postcode": "M21 8BF", "lat": 53.439373735936712, "lon": -2.272416465, "category": "community_youth", "confidence": "medium" }, "geometry": { "type": "Point", "coordinates": [ -2.272416465, 53.439373735936712 ] } },
{ "type": "Feature", "properties": { "name": "Prestwich Community Youth 167", "postcode": "M25 1AN", "lat": 53.520647162955562, "lon": -2.287380645, "category": "community_youth", "confidence": "low" }, "geometry": { "type": "Point", "coordinates": [ -2.287380645, 53.520647162955562 ] } },
{ "type": "Feature", "properties": { "name": "Hoylake Arts Youth 168", "postcode": "CH47 2DH", "lat": 53.386293410145683, "lon": -3.18429209, "category": "arts_youth", "confidence": "low" }, "geometry": { "type": "Point", "coordinates": [ -3.18429209, 53.386293410145683 ] } },
{ "type": "Feature", "properties": { "name": "Chorlton Faith Youth 169", "postcode": "M21 8BF", "lat": 53.440722322767826, "lon": -2.280778881, "category": "faith_youth", "confidence": "low" }, "geometry": { "type": "Point", "coordinates": [ -2.280778881, 53.440722322767826 ] } },
{ "type": "Feature", "properties": { "name": "Sandbach Youth Centre 170", "postcode": "CW11 1BA", "lat": 53.139218392283489, "lon": -2.373341605, "category": "youth_centre", "confidence": "high" }, "geometry": { "type": "Point", "coordinates": [ -2.373341605, 53.139218392283489 ] } },
{ "type": "Feature", "properties": { "name": "Chester Send Support 171", "postcode": "CH1 2BG", "lat": 53.19499728322571, "lon": -2.895359654, "category": "SEND_support", "confidence": "medium" }, "geometry": { "type": "Point", "coordinates": [ -2.895359654, 53.19499728322571 ] } },
{ "type": "Feature", "properties": { "name": "Greasby Youth Centre 172", "postcode": "CH49 3NN", "lat": 53.363112129266021, "lon": -3.113455601, "category": "youth_centre", "confidence": "medium" }, "geometry": { "type": "Point", "coordinates": [ -3.113455601, 53.363112129266021 ] } },
{ "type": "Feature", "properties": { "name": "Chorlton Community Youth 173", "postcode": "M21 8BF", "lat": 53.448535937442422, "lon": -2.272076052, "category": "community_youth", "confidence": "low" }, "geometry": { "type": "Point", "coordinates": [ -2.272076052, 53.448535937442422 ] } },
{ "type": "Feature", "properties": { "name": "Urmston Faith Youth 174", "postcode": "M41 6QT", "lat": 53.456960908014729, "lon": -2.370287448, "category": "faith_youth", "confidence": "medium" }, "geometry": { "type": "Point", "coordinates": [ -2.370287448, 53.456960908014729 ] } },
{ "type": "Feature", "properties": { "name": "Great Sankey Mentoring 175", "postcode": "WA5 1HG", "lat": 53.40920502835295, "lon": -2.662457353, "category": "mentoring", "confidence": "high" }, "geometry": { "type": "Point", "coordinates": [ -2.662457353, 53.40920502835295 ] } },
{ "type": "Feature", "properties": { "name": "Bootle Sports Youth 176", "postcode": "L20 3ER", "lat": 53.448059778719227, "lon": -2.988696537, "category": "sports_youth", "confidence": "low" }, "geometry": { "type": "Point", "coordinates": [ -2.988696537, 53.448059778719227 ] } },
{ "type": "Feature", "properties": { "name": "Winsford Community Youth 177", "postcode": "CW7 1BA", "lat": 53.184406232251533, "lon": -2.523238718, "category": "community_youth", "confidence": "high" }, "geometry": { "type": "Point", "coordinates": [ -2.523238718, 53.184406232251533 ] } },
{ "type": "Feature", "properties": { "name": "Prestwich Faith Youth 178", "postcode": "M25 1AN", "lat": 53.526160035221309, "lon": -2.276075226, "category": "faith_youth", "confidence": "high" }, "geometry": { "type": "Point", "coordinates": [ -2.276075226, 53.526160035221309 ] } },
{ "type": "Feature", "properties": { "name": "Burnage Youth Centre 179", "postcode": "M19 2WY", "lat": 53.432740108018379, "lon": -2.190686302, "category": "youth_centre", "confidence": "low" }, "geometry": { "type": "Point", "coordinates": [ -2.190686302, 53.432740108018379 ] } },
{ "type": "Feature", "properties": { "name": "Warrington Sports Youth 180", "postcode": "WA1 1UH", "lat": 53.396936843204955, "lon": -2.590802778, "category": "sports_youth", "confidence": "low" }, "geometry": { "type": "Point", "coordinates": [ -2.590802778, 53.396936843204955 ] } },
{ "type": "Feature", "properties": { "name": "St Helens Sports Youth 181", "postcode": "WA10 1UF", "lat": 53.44460213, "lon": -2.745109099, "category": "sports_youth", "confidence": "high" }, "geometry": { "type": "Point", "coordinates": [ -2.745109099, 53.44460213 ] } },
{ "type": "Feature", "properties": { "name": "West Kirby Youth Centre 182", "postcode": "CH48 4HX", "lat": 53.367473093198875, "lon": -3.177403755, "category": "youth_centre", "confidence": "low" }, "geometry": { "type": "Point", "coordinates": [ -3.177403755, 53.367473093198875 ] } },
{ "type": "Feature", "properties": { "name": "Kensington Community Youth 183", "postcode": "L7 8SE", "lat": 53.399628563721286, "lon": -2.948242053, "category": "community_youth", "confidence": "medium" }, "geometry": { "type": "Point", "coordinates": [ -2.948242053, 53.399628563721286 ] } },
{ "type": "Feature", "properties": { "name": "Hulme Sports Youth 184", "postcode": "M15 5TQ", "lat": 53.47130095, "lon": -2.262144605, "category": "sports_youth", "confidence": "low" }, "geometry": { "type": "Point", "coordinates": [ -2.262144605, 53.47130095 ] } },
{ "type": "Feature", "properties": { "name": "Chorlton Youth Centre 185", "postcode": "M21 8BF", "lat": 53.437784029062847, "lon": -2.274493915, "category": "youth_centre", "confidence": "high" }, "geometry": { "type": "Point", "coordinates": [ -2.274493915, 53.437784029062847 ] } },
{ "type": "Feature", "properties": { "name": "Openshaw Faith Youth 186", "postcode": "M11 1HF", "lat": 53.490415813740547, "lon": -2.189762246, "category": "faith_youth", "confidence": "low" }, "geometry": { "type": "Point", "coordinates": [ -2.189762246, 53.490415813740547 ] } },
{ "type": "Feature", "properties": { "name": "Moss Side Youth Centre 187", "postcode": "M16 7EX", "lat": 53.46224280275748, "lon": -2.281763741, "category": "youth_centre", "confidence": "medium" }, "geometry": { "type": "Point", "coordinates": [ -2.281763741, 53.46224280275748 ] } },
{ "type": "Feature", "properties": { "name": "Hoylake Mentoring 188", "postcode": "CH47 2DH", "lat": 53.383584981613957, "lon": -3.184423702, "category": "mentoring", "confidence": "medium" }, "geometry": { "type": "Point", "coordinates": [ -3.184423702, 53.383584981613957 ] } },
{ "type": "Feature", "properties": { "name": "Chester Send Support 189", "postcode": "CH1 2BG", "lat": 53.18433368, "lon": -2.89777882, "category": "SEND_support", "confidence": "low" }, "geometry": { "type": "Point", "coordinates": [ -2.89777882, 53.18433368 ] } },
{ "type": "Feature", "properties": { "name": "Kensington Youth Centre 190", "postcode": "L7 8SE", "lat": 53.407891245194286, "lon": -2.953215909, "category": "youth_centre", "confidence": "medium" }, "geometry": { "type": "Point", "coordinates": [ -2.953215909, 53.407891245194286 ] } },
{ "type": "Feature", "properties": { "name": "Birkenhead Faith Youth 191", "postcode": "CH41 5EU", "lat": 53.396125905004723, "lon": -3.024529982, "category": "faith_youth", "confidence": "low" }, "geometry": { "type": "Point", "coordinates": [ -3.024529982, 53.396125905004723 ] } },
{ "type": "Feature", "properties": { "name": "Manchester Youth Centre 192", "postcode": "M1 5AN", "lat": 53.470565994140564, "lon": -2.253516492, "category": "youth_centre", "confidence": "high" }, "geometry": { "type": "Point", "coordinates": [ -2.253516492, 53.470565994140564 ] } },
{ "type": "Feature", "properties": { "name": "Old Swan Send Support 193", "postcode": "L13 5XA", "lat": 53.414954008563811, "lon": -2.934895671, "category": "SEND_support", "confidence": "medium" }, "geometry": { "type": "Point", "coordinates": [ -2.934895671, 53.414954008563811 ] } },
{ "type": "Feature", "properties": { "name": "Runcorn Community Youth 194", "postcode": "WA7 2EU", "lat": 53.340736495720392, "lon": -2.701509184, "category": "community_youth", "confidence": "medium" }, "geometry": { "type": "Point", "coordinates": [ -2.701509184, 53.340736495720392 ] } },
{ "type": "Feature", "properties": { "name": "Burnage Send Support 195", "postcode": "M19 2WY", "lat": 53.437759067426548, "lon": -2.186139634, "category": "SEND_support", "confidence": "medium" }, "geometry": { "type": "Point", "coordinates": [ -2.186139634, 53.437759067426548 ] } },
{ "type": "Feature", "properties": { "name": "Nantwich Youth Centre 196", "postcode": "CW5 5RQ", "lat": 53.068685010341831, "lon": -2.515630862, "category": "youth_centre", "confidence": "high" }, "geometry": { "type": "Point", "coordinates": [ -2.515630862, 53.068685010341831 ] } },
{ "type": "Feature", "properties": { "name": "Old Swan Arts Youth 197", "postcode": "L13 5XA", "lat": 53.414492765268861, "lon": -2.930040908, "category": "arts_youth", "confidence": "high" }, "geometry": { "type": "Point", "coordinates": [ -2.930040908, 53.414492765268861 ] } },
{ "type": "Feature", "properties": { "name": "Nantwich Mentoring 198", "postcode": "CW5 5RQ", "lat": 53.065983165958947, "lon": -2.528525369, "category": "mentoring", "confidence": "medium" }, "geometry": { "type": "Point", "coordinates": [ -2.528525369, 53.065983165958947 ] } },
{ "type": "Feature", "properties": { "name": "Longsight Sports Youth 199", "postcode": "M13 9TQ", "lat": 53.461618162516338, "lon": -2.204543482, "category": "sports_youth", "confidence": "medium" }, "geometry": { "type": "Point", "coordinates": [ -2.204543482, 53.461618162516338 ] } },
{ "type": "Feature", "properties": { "name": "Prestwich Arts Youth 200", "postcode": "M25 1AN", "lat": 53.526498036192059, "lon": -2.289099191, "category": "arts_youth", "confidence": "low" }, "geometry": { "type": "Point", "coordinates": [ -2.289099191, 53.526498036192059 ] } },
{ "type": "Feature", "properties": { "name": "Heswall Send Support 201", "postcode": "CH60 0AF", "lat": 53.318619758870689, "lon": -3.100662554, "category": "SEND_support", "confidence": "low" }, "geometry": { "type": "Point", "coordinates": [ -3.100662554, 53.318619758870689 ] } },
{ "type": "Feature", "properties": { "name": "Kensington Community Youth 202", "postcode": "L7 8SE", "lat": 53.398923197399128, "lon": -2.961285655, "category": "community_youth", "confidence": "high" }, "geometry": { "type": "Point", "coordinates": [ -2.961285655, 53.398923197399128 ] } },
{ "type": "Feature", "properties": { "name": "Walton Faith Youth 203", "postcode": "L9 1NB", "lat": 53.444986734051895, "lon": -2.947205892, "category": "faith_youth", "confidence": "medium" }, "geometry": { "type": "Point", "coordinates": [ -2.947205892, 53.444986734051895 ] } },
{ "type": "Feature", "properties": { "name": "Openshaw Youth Centre 204", "postcode": "M11 1HF", "lat": 53.474911216136746, "lon": -2.185671672, "category": "youth_centre", "confidence": "medium" }, "geometry": { "type": "Point", "coordinates": [ -2.185671672, 53.474911216136746 ] } },
{ "type": "Feature", "properties": { "name": "Chorlton Sports Youth 205", "postcode": "M21 8BF", "lat": 53.443146094420463, "lon": -2.273981274, "category": "sports_youth", "confidence": "medium" }, "geometry": { "type": "Point", "coordinates": [ -2.273981274, 53.443146094420463 ] } },
{ "type": "Feature", "properties": { "name": "Burnage Mentoring 206", "postcode": "M19 2WY", "lat": 53.436315951241191, "lon": -2.187265918, "category": "mentoring", "confidence": "high" }, "geometry": { "type": "Point", "coordinates": [ -2.187265918, 53.436315951241191 ] } },
{ "type": "Feature", "properties": { "name": "Eccles Send Support 207", "postcode": "M30 0DL", "lat": 53.471938513152629, "lon": -2.363956521, "category": "SEND_support", "confidence": "low" }, "geometry": { "type": "Point", "coordinates": [ -2.363956521, 53.471938513152629 ] } },
{ "type": "Feature", "properties": { "name": "Ellesmere Port Arts Youth 208", "postcode": "CH65 2ER", "lat": 53.268974357812418, "lon": -2.906700458, "category": "arts_youth", "confidence": "low" }, "geometry": { "type": "Point", "coordinates": [ -2.906700458, 53.268974357812418 ] } },
{ "type": "Feature", "properties": { "name": "Greasby Send Support 209", "postcode": "CH49 3NN", "lat": 53.362659538754166, "lon": -3.123802422, "category": "SEND_support", "confidence": "high" }, "geometry": { "type": "Point", "coordinates": [ -3.123802422, 53.362659538754166 ] } },
{ "type": "Feature", "properties": { "name": "Warrington Arts Youth 210", "postcode": "WA1 1UH", "lat": 53.380815969690531, "lon": -2.598883226, "category": "arts_youth", "confidence": "low" }, "geometry": { "type": "Point", "coordinates": [ -2.598883226, 53.380815969690531 ] } },
{ "type": "Feature", "properties": { "name": "Middlewich Send Support 211", "postcode": "CW10 9BX", "lat": 53.184617451015384, "lon": -2.449093823, "category": "SEND_support", "confidence": "low" }, "geometry": { "type": "Point", "coordinates": [ -2.449093823, 53.184617451015384 ] } },
{ "type": "Feature", "properties": { "name": "Kensington Sports Youth 212", "postcode": "L7 8SE", "lat": 53.40938137000353, "lon": -2.957514077, "category": "sports_youth", "confidence": "low" }, "geometry": { "type": "Point", "coordinates": [ -2.957514077, 53.40938137000353 ] } },
{ "type": "Feature", "properties": { "name": "Middlewich Arts Youth 213", "postcode": "CW10 9BX", "lat": 53.189565701613745, "lon": -2.440929446, "category": "arts_youth", "confidence": "medium" }, "geometry": { "type": "Point", "coordinates": [ -2.440929446, 53.189565701613745 ] } },
{ "type": "Feature", "properties": { "name": "Middlewich Youth Centre 214", "postcode": "CW10 9BX", "lat": 53.194937475663245, "lon": -2.448000834, "category": "youth_centre", "confidence": "high" }, "geometry": { "type": "Point", "coordinates": [ -2.448000834, 53.194937475663245 ] } },
{ "type": "Feature", "properties": { "name": "Winsford Send Support 215", "postcode": "CW7 1BA", "lat": 53.18890844711273, "lon": -2.523133215, "category": "SEND_support", "confidence": "low" }, "geometry": { "type": "Point", "coordinates": [ -2.523133215, 53.18890844711273 ] } },
{ "type": "Feature", "properties": { "name": "West Kirby Youth Centre 216", "postcode": "CH48 4HX", "lat": 53.380945682867527, "lon": -3.190581929, "category": "youth_centre", "confidence": "medium" }, "geometry": { "type": "Point", "coordinates": [ -3.190581929, 53.380945682867527 ] } },
{ "type": "Feature", "properties": { "name": "Manchester Sports Youth 217", "postcode": "M1 5AN", "lat": 53.488946024341864, "lon": -2.254476121, "category": "sports_youth", "confidence": "medium" }, "geometry": { "type": "Point", "coordinates": [ -2.254476121, 53.488946024341864 ] } },
{ "type": "Feature", "properties": { "name": "Nantwich Youth Centre 218", "postcode": "CW5 5RQ", "lat": 53.070385824408795, "lon": -2.524870214, "category": "youth_centre", "confidence": "medium" }, "geometry": { "type": "Point", "coordinates": [ -2.524870214, 53.070385824408795 ] } },
{ "type": "Feature", "properties": { "name": "Congleton Send Support 219", "postcode": "CW12 1ET", "lat": 53.17097307766609, "lon": -2.21960348, "category": "SEND_support", "confidence": "medium" }, "geometry": { "type": "Point", "coordinates": [ -2.21960348, 53.17097307766609 ] } },
{ "type": "Feature", "properties": { "name": "Nantwich Faith Youth 220", "postcode": "CW5 5RQ", "lat": 53.074978506221193, "lon": -2.527849638, "category": "faith_youth", "confidence": "high" }, "geometry": { "type": "Point", "coordinates": [ -2.527849638, 53.074978506221193 ] } },
{ "type": "Feature", "properties": { "name": "Urmston Arts Youth 221", "postcode": "M41 6QT", "lat": 53.439500610340666, "lon": -2.355242156, "category": "arts_youth", "confidence": "medium" }, "geometry": { "type": "Point", "coordinates": [ -2.355242156, 53.439500610340666 ] } },
{ "type": "Feature", "properties": { "name": "Allerton Community Youth 222", "postcode": "L18 1ED", "lat": 53.369676832535724, "lon": -2.912468194, "category": "community_youth", "confidence": "medium" }, "geometry": { "type": "Point", "coordinates": [ -2.912468194, 53.369676832535724 ] } },
{ "type": "Feature", "properties": { "name": "Runcorn Mentoring 223", "postcode": "WA7 2EU", "lat": 53.330719107033168, "lon": -2.696524186, "category": "mentoring", "confidence": "high" }, "geometry": { "type": "Point", "coordinates": [ -2.696524186, 53.330719107033168 ] } },
{ "type": "Feature", "properties": { "name": "Sandbach Sports Youth 224", "postcode": "CW11 1BA", "lat": 53.140730109603695, "lon": -2.36058933, "category": "sports_youth", "confidence": "high" }, "geometry": { "type": "Point", "coordinates": [ -2.36058933, 53.140730109603695 ] } },
{ "type": "Feature", "properties": { "name": "Eccles Mentoring 225", "postcode": "M30 0DL", "lat": 53.471199919501927, "lon": -2.347026225, "category": "mentoring", "confidence": "medium" }, "geometry": { "type": "Point", "coordinates": [ -2.347026225, 53.471199919501927 ] } },
{ "type": "Feature", "properties": { "name": "Moreton Send Support 226", "postcode": "CH46 8SA", "lat": 53.399896630019519, "lon": -3.104486647, "category": "SEND_support", "confidence": "medium" }, "geometry": { "type": "Point", "coordinates": [ -3.104486647, 53.399896630019519 ] } },
{ "type": "Feature", "properties": { "name": "Nantwich Youth Centre 227", "postcode": "CW5 5RQ", "lat": 53.076308452320326, "lon": -2.529856799, "category": "youth_centre", "confidence": "high" }, "geometry": { "type": "Point", "coordinates": [ -2.529856799, 53.076308452320326 ] } },
{ "type": "Feature", "properties": { "name": "Moss Side Arts Youth 228", "postcode": "M16 7EX", "lat": 53.454487473884761, "lon": -2.273043888, "category": "arts_youth", "confidence": "high" }, "geometry": { "type": "Point", "coordinates": [ -2.273043888, 53.454487473884761 ] } },
{ "type": "Feature", "properties": { "name": "Hulme Youth Centre 229", "postcode": "M15 5TQ", "lat": 53.471642958401262, "lon": -2.25766489, "category": "youth_centre", "confidence": "high" }, "geometry": { "type": "Point", "coordinates": [ -2.25766489, 53.471642958401262 ] } },
{ "type": "Feature", "properties": { "name": "Openshaw Sports Youth 230", "postcode": "M11 1HF", "lat": 53.484989402677286, "lon": -2.194436647, "category": "sports_youth", "confidence": "low" }, "geometry": { "type": "Point", "coordinates": [ -2.194436647, 53.484989402677286 ] } },
{ "type": "Feature", "properties": { "name": "Burnage Faith Youth 231", "postcode": "M19 2WY", "lat": 53.429871932553972, "lon": -2.186130714, "category": "faith_youth", "confidence": "medium" }, "geometry": { "type": "Point", "coordinates": [ -2.186130714, 53.429871932553972 ] } },
{ "type": "Feature", "properties": { "name": "Formby Send Support 232", "postcode": "L37 4AF", "lat": 53.55180444399916, "lon": -3.062995601, "category": "SEND_support", "confidence": "medium" }, "geometry": { "type": "Point", "coordinates": [ -3.062995601, 53.55180444399916 ] } },
{ "type": "Feature", "properties": { "name": "Sandbach Community Youth 233", "postcode": "CW11 1BA", "lat": 53.13899332425386, "lon": -2.372734527, "category": "community_youth", "confidence": "low" }, "geometry": { "type": "Point", "coordinates": [ -2.372734527, 53.13899332425386 ] } },
{ "type": "Feature", "properties": { "name": "Liverpool Arts Youth 234", "postcode": "L1 5DW", "lat": 53.403638159793495, "lon": -2.978111243, "category": "arts_youth", "confidence": "high" }, "geometry": { "type": "Point", "coordinates": [ -2.978111243, 53.403638159793495 ] } },
{ "type": "Feature", "properties": { "name": "Chorlton Community Youth 235", "postcode": "M21 8BF", "lat": 53.437217757314443, "lon": -2.279096078, "category": "community_youth", "confidence": "low" }, "geometry": { "type": "Point", "coordinates": [ -2.279096078, 53.437217757314443 ] } },
{ "type": "Feature", "properties": { "name": "Moss Side Mentoring 236", "postcode": "M16 7EX", "lat": 53.458428553647316, "lon": -2.282074982, "category": "mentoring", "confidence": "medium" }, "geometry": { "type": "Point", "coordinates": [ -2.282074982, 53.458428553647316 ] } },
{ "type": "Feature", "properties": { "name": "Ellesmere Port Community Youth 237", "postcode": "CH65 2ER", "lat": 53.263547924077855, "lon": -2.899247527, "category": "community_youth", "confidence": "low" }, "geometry": { "type": "Point", "coordinates": [ -2.899247527, 53.263547924077855 ] } },
{ "type": "Feature", "properties": { "name": "Northwich Community Youth 238", "postcode": "CW9 5BS", "lat": 53.267844292166892, "lon": -2.529196147, "category": "community_youth", "confidence": "medium" }, "geometry": { "type": "Point", "coordinates": [ -2.529196147, 53.267844292166892 ] } },
{ "type": "Feature", "properties": { "name": "Hulme Youth Centre 239", "postcode": "M15 5TQ", "lat": 53.47144660548043, "lon": -2.266850977, "category": "youth_centre", "confidence": "medium" }, "geometry": { "type": "Point", "coordinates": [ -2.266850977, 53.47144660548043 ] } },
{ "type": "Feature", "properties": { "name": "Widnes Faith Youth 240", "postcode": "WA8 6DX", "lat": 53.372699631046984, "lon": -2.729937309, "category": "faith_youth", "confidence": "low" }, "geometry": { "type": "Point", "coordinates": [ -2.729937309, 53.372699631046984 ] } },
{ "type": "Feature", "properties": { "name": "Bootle Send Support 241", "postcode": "L20 3ER", "lat": 53.448660654126208, "lon": -2.993514626, "category": "SEND_support", "confidence": "medium" }, "geometry": { "type": "Point", "coordinates": [ -2.993514626, 53.448660654126208 ] } },
{ "type": "Feature", "properties": { "name": "St Helens Sports Youth 242", "postcode": "WA10 1UF", "lat": 53.458317378122722, "lon": -2.738236368, "category": "sports_youth", "confidence": "low" }, "geometry": { "type": "Point", "coordinates": [ -2.738236368, 53.458317378122722 ] } },
{ "type": "Feature", "properties": { "name": "Bromborough Arts Youth 243", "postcode": "CH62 2BS", "lat": 53.323462293061404, "lon": -2.991708197, "category": "arts_youth", "confidence": "high" }, "geometry": { "type": "Point", "coordinates": [ -2.991708197, 53.323462293061404 ] } },
{ "type": "Feature", "properties": { "name": "Warrington Community Youth 244", "postcode": "WA1 1UH", "lat": 53.384450058888305, "lon": -2.587676879, "category": "community_youth", "confidence": "medium" }, "geometry": { "type": "Point", "coordinates": [ -2.587676879, 53.384450058888305 ] } },
{ "type": "Feature", "properties": { "name": "St Helens Community Youth 245", "postcode": "WA10 1UF", "lat": 53.447988381329694, "lon": -2.735880666, "category": "community_youth", "confidence": "low" }, "geometry": { "type": "Point", "coordinates": [ -2.735880666, 53.447988381329694 ] } },
{ "type": "Feature", "properties": { "name": "Openshaw Faith Youth 246", "postcode": "M11 1HF", "lat": 53.476608161797934, "lon": -2.195839507, "category": "faith_youth", "confidence": "medium" }, "geometry": { "type": "Point", "coordinates": [ -2.195839507, 53.476608161797934 ] } },
{ "type": "Feature", "properties": { "name": "Middlewich Sports Youth 247", "postcode": "CW10 9BX", "lat": 53.192911987801359, "lon": -2.447470803, "category": "sports_youth", "confidence": "low" }, "geometry": { "type": "Point", "coordinates": [ -2.447470803, 53.192911987801359 ] } },
{ "type": "Feature", "properties": { "name": "Winsford Arts Youth 248", "postcode": "CW7 1BA", "lat": 53.18316934, "lon": -2.532723634, "category": "arts_youth", "confidence": "medium" }, "geometry": { "type": "Point", "coordinates": [ -2.532723634, 53.18316934 ] } },
{ "type": "Feature", "properties": { "name": "St Helens Arts Youth 249", "postcode": "WA10 1UF", "lat": 53.444679430226657, "lon": -2.743947299, "category": "arts_youth", "confidence": "high" }, "geometry": { "type": "Point", "coordinates": [ -2.743947299, 53.444679430226657 ] } },
{ "type": "Feature", "properties": { "name": "St Helens Arts Youth 250", "postcode": "WA10 1UF", "lat": 53.462600860992339, "lon": -2.736209635, "category": "arts_youth", "confidence": "medium" }, "geometry": { "type": "Point", "coordinates": [ -2.736209635, 53.462600860992339 ] } },
{ "type": "Feature", "properties": { "name": "Bromborough Mentoring 251", "postcode": "CH62 2BS", "lat": 53.325069405944717, "lon": -2.989270353, "category": "mentoring", "confidence": "high" }, "geometry": { "type": "Point", "coordinates": [ -2.989270353, 53.325069405944717 ] } },
{ "type": "Feature", "properties": { "name": "Ellesmere Port Arts Youth 252", "postcode": "CH65 2ER", "lat": 53.282560980994162, "lon": -2.894381339, "category": "arts_youth", "confidence": "low" }, "geometry": { "type": "Point", "coordinates": [ -2.894381339, 53.282560980994162 ] } },
{ "type": "Feature", "properties": { "name": "Crosby Send Support 253", "postcode": "L23 2TB", "lat": 53.489984336287982, "lon": -3.032011844, "category": "SEND_support", "confidence": "high" }, "geometry": { "type": "Point", "coordinates": [ -3.032011844, 53.489984336287982 ] } },
{ "type": "Feature", "properties": { "name": "Urmston Arts Youth 254", "postcode": "M41 6QT", "lat": 53.456390564614715, "lon": -2.359290329, "category": "arts_youth", "confidence": "high" }, "geometry": { "type": "Point", "coordinates": [ -2.359290329, 53.456390564614715 ] } },
{ "type": "Feature", "properties": { "name": "Chorlton Youth Centre 255", "postcode": "M21 8BF", "lat": 53.43475104865427, "lon": -2.276135114, "category": "youth_centre", "confidence": "low" }, "geometry": { "type": "Point", "coordinates": [ -2.276135114, 53.43475104865427 ] } },
{ "type": "Feature", "properties": { "name": "Chester Sports Youth 256", "postcode": "CH1 2BG", "lat": 53.18173005, "lon": -2.897432027, "category": "sports_youth", "confidence": "low" }, "geometry": { "type": "Point", "coordinates": [ -2.897432027, 53.18173005 ] } },
{ "type": "Feature", "properties": { "name": "Hulme Youth Centre 257", "postcode": "M15 5TQ", "lat": 53.468520253724748, "lon": -2.252363782, "category": "youth_centre", "confidence": "medium" }, "geometry": { "type": "Point", "coordinates": [ -2.252363782, 53.468520253724748 ] } },
{ "type": "Feature", "properties": { "name": "Frodsham Faith Youth 258", "postcode": "WA6 7QN", "lat": 53.278517011432747, "lon": -2.730614004, "category": "faith_youth", "confidence": "high" }, "geometry": { "type": "Point", "coordinates": [ -2.730614004, 53.278517011432747 ] } },
{ "type": "Feature", "properties": { "name": "Middlewich Faith Youth 259", "postcode": "CW10 9BX", "lat": 53.198621903575685, "lon": -2.436047421, "category": "faith_youth", "confidence": "low" }, "geometry": { "type": "Point", "coordinates": [ -2.436047421, 53.198621903575685 ] } },
{ "type": "Feature", "properties": { "name": "Chester Arts Youth 260", "postcode": "CH1 2BG", "lat": 53.193417685186574, "lon": -2.901060254, "category": "arts_youth", "confidence": "high" }, "geometry": { "type": "Point", "coordinates": [ -2.901060254, 53.193417685186574 ] } },
{ "type": "Feature", "properties": { "name": "Kensington Sports Youth 261", "postcode": "L7 8SE", "lat": 53.409797192858719, "lon": -2.965876143, "category": "sports_youth", "confidence": "low" }, "geometry": { "type": "Point", "coordinates": [ -2.965876143, 53.409797192858719 ] } },
{ "type": "Feature", "properties": { "name": "Winsford Faith Youth 262", "postcode": "CW7 1BA", "lat": 53.196911795186587, "lon": -2.530224554, "category": "faith_youth", "confidence": "low" }, "geometry": { "type": "Point", "coordinates": [ -2.530224554, 53.196911795186587 ] } },
{ "type": "Feature", "properties": { "name": "Winsford Faith Youth 263", "postcode": "CW7 1BA", "lat": 53.186015386153727, "lon": -2.531161701, "category": "faith_youth", "confidence": "high" }, "geometry": { "type": "Point", "coordinates": [ -2.531161701, 53.186015386153727 ] } },
{ "type": "Feature", "properties": { "name": "Moreton Sports Youth 264", "postcode": "CH46 8SA", "lat": 53.400827716852966, "lon": -3.107416798, "category": "sports_youth", "confidence": "high" }, "geometry": { "type": "Point", "coordinates": [ -3.107416798, 53.400827716852966 ] } },
{ "type": "Feature", "properties": { "name": "Middlewich Send Support 265", "postcode": "CW10 9BX", "lat": 53.191922622591058, "lon": -2.454115316, "category": "SEND_support", "confidence": "medium" }, "geometry": { "type": "Point", "coordinates": [ -2.454115316, 53.191922622591058 ] } },
{ "type": "Feature", "properties": { "name": "Walton Faith Youth 266", "postcode": "L9 1NB", "lat": 53.445146378283681, "lon": -2.958343328, "category": "faith_youth", "confidence": "low" }, "geometry": { "type": "Point", "coordinates": [ -2.958343328, 53.445146378283681 ] } },
{ "type": "Feature", "properties": { "name": "Kensington Arts Youth 267", "postcode": "L7 8SE", "lat": 53.406890258270579, "lon": -2.960876836, "category": "arts_youth", "confidence": "low" }, "geometry": { "type": "Point", "coordinates": [ -2.960876836, 53.406890258270579 ] } },
{ "type": "Feature", "properties": { "name": "West Kirby Community Youth 268", "postcode": "CH48 4HX", "lat": 53.37251122937387, "lon": -3.182126988, "category": "community_youth", "confidence": "low" }, "geometry": { "type": "Point", "coordinates": [ -3.182126988, 53.37251122937387 ] } },
{ "type": "Feature", "properties": { "name": "Old Swan Sports Youth 269", "postcode": "L13 5XA", "lat": 53.404030191521393, "lon": -2.934562457, "category": "sports_youth", "confidence": "low" }, "geometry": { "type": "Point", "coordinates": [ -2.934562457, 53.404030191521393 ] } },
{ "type": "Feature", "properties": { "name": "Middlewich Faith Youth 270", "postcode": "CW10 9BX", "lat": 53.182107677487885, "lon": -2.438094334, "category": "faith_youth", "confidence": "medium" }, "geometry": { "type": "Point", "coordinates": [ -2.438094334, 53.182107677487885 ] } },
{ "type": "Feature", "properties": { "name": "Old Swan Community Youth 271", "postcode": "L13 5XA", "lat": 53.411802870296235, "lon": -2.924766856, "category": "community_youth", "confidence": "low" }, "geometry": { "type": "Point", "coordinates": [ -2.924766856, 53.411802870296235 ] } },
{ "type": "Feature", "properties": { "name": "Liverpool Faith Youth 272", "postcode": "L1 5DW", "lat": 53.401600811615467, "lon": -2.980031192, "category": "faith_youth", "confidence": "high" }, "geometry": { "type": "Point", "coordinates": [ -2.980031192, 53.401600811615467 ] } },
{ "type": "Feature", "properties": { "name": "Moreton Youth Centre 273", "postcode": "CH46 8SA", "lat": 53.416888759216256, "lon": -3.107581141, "category": "youth_centre", "confidence": "medium" }, "geometry": { "type": "Point", "coordinates": [ -3.107581141, 53.416888759216256 ] } },
{ "type": "Feature", "properties": { "name": "Congleton Youth Centre 274", "postcode": "CW12 1ET", "lat": 53.170835624957085, "lon": -2.209692191, "category": "youth_centre", "confidence": "medium" }, "geometry": { "type": "Point", "coordinates": [ -2.209692191, 53.170835624957085 ] } },
{ "type": "Feature", "properties": { "name": "Everton Sports Youth 275", "postcode": "L5 5AF", "lat": 53.423092814754042, "lon": -2.966906403, "category": "sports_youth", "confidence": "high" }, "geometry": { "type": "Point", "coordinates": [ -2.966906403, 53.423092814754042 ] } },
{ "type": "Feature", "properties": { "name": "Chester Send Support 276", "postcode": "CH1 2BG", "lat": 53.18493534677161, "lon": -2.89663785, "category": "SEND_support", "confidence": "low" }, "geometry": { "type": "Point", "coordinates": [ -2.89663785, 53.18493534677161 ] } },
{ "type": "Feature", "properties": { "name": "Moss Side Mentoring 277", "postcode": "M16 7EX", "lat": 53.449569709721445, "lon": -2.280812502, "category": "mentoring", "confidence": "medium" }, "geometry": { "type": "Point", "coordinates": [ -2.280812502, 53.449569709721445 ] } },
{ "type": "Feature", "properties": { "name": "Walton Arts Youth 278", "postcode": "L9 1NB", "lat": 53.445764476467659, "lon": -2.946059466, "category": "arts_youth", "confidence": "medium" }, "geometry": { "type": "Point", "coordinates": [ -2.946059466, 53.445764476467659 ] } },
{ "type": "Feature", "properties": { "name": "Warrington Faith Youth 279", "postcode": "WA1 1UH", "lat": 53.39720055320614, "lon": -2.587669172, "category": "faith_youth", "confidence": "medium" }, "geometry": { "type": "Point", "coordinates": [ -2.587669172, 53.39720055320614 ] } },
{ "type": "Feature", "properties": { "name": "Middlewich Youth Centre 280", "postcode": "CW10 9BX", "lat": 53.188351075249109, "lon": -2.445397166, "category": "youth_centre", "confidence": "low" }, "geometry": { "type": "Point", "coordinates": [ -2.445397166, 53.188351075249109 ] } },
{ "type": "Feature", "properties": { "name": "Moreton Mentoring 281", "postcode": "CH46 8SA", "lat": 53.402308427352679, "lon": -3.103330721, "category": "mentoring", "confidence": "low" }, "geometry": { "type": "Point", "coordinates": [ -3.103330721, 53.402308427352679 ] } },
{ "type": "Feature", "properties": { "name": "Heswall Youth Centre 282", "postcode": "CH60 0AF", "lat": 53.3253741, "lon": -3.093831387, "category": "youth_centre", "confidence": "medium" }, "geometry": { "type": "Point", "coordinates": [ -3.093831387, 53.3253741 ] } },
{ "type": "Feature", "properties": { "name": "Everton Community Youth 283", "postcode": "L5 5AF", "lat": 53.438102833208681, "lon": -2.976215244, "category": "community_youth", "confidence": "high" }, "geometry": { "type": "Point", "coordinates": [ -2.976215244, 53.438102833208681 ] } },
{ "type": "Feature", "properties": { "name": "Runcorn Mentoring 284", "postcode": "WA7 2EU", "lat": 53.33496502030399, "lon": -2.700141096, "category": "mentoring", "confidence": "high" }, "geometry": { "type": "Point", "coordinates": [ -2.700141096, 53.33496502030399 ] } },
{ "type": "Feature", "properties": { "name": "Hulme Arts Youth 285", "postcode": "M15 5TQ", "lat": 53.459514471335204, "lon": -2.265684142, "category": "arts_youth", "confidence": "low" }, "geometry": { "type": "Point", "coordinates": [ -2.265684142, 53.459514471335204 ] } },
{ "type": "Feature", "properties": { "name": "Frodsham Youth Centre 286", "postcode": "WA6 7QN", "lat": 53.274800735316404, "lon": -2.716275353, "category": "youth_centre", "confidence": "low" }, "geometry": { "type": "Point", "coordinates": [ -2.716275353, 53.274800735316404 ] } },
{ "type": "Feature", "properties": { "name": "Old Swan Faith Youth 287", "postcode": "L13 5XA", "lat": 53.414215026143147, "lon": -2.939142639, "category": "faith_youth", "confidence": "low" }, "geometry": { "type": "Point", "coordinates": [ -2.939142639, 53.414215026143147 ] } },
{ "type": "Feature", "properties": { "name": "West Kirby Youth Centre 288", "postcode": "CH48 4HX", "lat": 53.382368691633538, "lon": -3.189320907, "category": "youth_centre", "confidence": "low" }, "geometry": { "type": "Point", "coordinates": [ -3.189320907, 53.382368691633538 ] } },
{ "type": "Feature", "properties": { "name": "Birkenhead Sports Youth 289", "postcode": "CH41 5EU", "lat": 53.404362684875821, "lon": -3.027038064, "category": "sports_youth", "confidence": "high" }, "geometry": { "type": "Point", "coordinates": [ -3.027038064, 53.404362684875821 ] } },
{ "type": "Feature", "properties": { "name": "Eccles Mentoring 290", "postcode": "M30 0DL", "lat": 53.483347920145782, "lon": -2.347604158, "category": "mentoring", "confidence": "high" }, "geometry": { "type": "Point", "coordinates": [ -2.347604158, 53.483347920145782 ] } },
{ "type": "Feature", "properties": { "name": "Formby Arts Youth 291", "postcode": "L37 4AF", "lat": 53.554224224347223, "lon": -3.076827432, "category": "arts_youth", "confidence": "medium" }, "geometry": { "type": "Point", "coordinates": [ -3.076827432, 53.554224224347223 ] } },
{ "type": "Feature", "properties": { "name": "Warrington Arts Youth 292", "postcode": "WA1 1UH", "lat": 53.392074030881936, "lon": -2.604271627, "category": "arts_youth", "confidence": "medium" }, "geometry": { "type": "Point", "coordinates": [ -2.604271627, 53.392074030881936 ] } },
{ "type": "Feature", "properties": { "name": "Frodsham Arts Youth 293", "postcode": "WA6 7QN", "lat": 53.276920669257457, "lon": -2.718702951, "category": "arts_youth", "confidence": "medium" }, "geometry": { "type": "Point", "coordinates": [ -2.718702951, 53.276920669257457 ] } },
{ "type": "Feature", "properties": { "name": "Sandbach Mentoring 294", "postcode": "CW11 1BA", "lat": 53.142461289491742, "lon": -2.370850304, "category": "mentoring", "confidence": "medium" }, "geometry": { "type": "Point", "coordinates": [ -2.370850304, 53.142461289491742 ] } },
{ "type": "Feature", "properties": { "name": "Northwich Arts Youth 295", "postcode": "CW9 5BS", "lat": 53.267000343289176, "lon": -2.511535958, "category": "arts_youth", "confidence": "high" }, "geometry": { "type": "Point", "coordinates": [ -2.511535958, 53.267000343289176 ] } },
{ "type": "Feature", "properties": { "name": "St Helens Community Youth 296", "postcode": "WA10 1UF", "lat": 53.444376177273192, "lon": -2.728111338, "category": "community_youth", "confidence": "low" }, "geometry": { "type": "Point", "coordinates": [ -2.728111338, 53.444376177273192 ] } },
{ "type": "Feature", "properties": { "name": "Heswall Mentoring 297", "postcode": "CH60 0AF", "lat": 53.329752125360571, "lon": -3.097069461, "category": "mentoring", "confidence": "medium" }, "geometry": { "type": "Point", "coordinates": [ -3.097069461, 53.329752125360571 ] } },
{ "type": "Feature", "properties": { "name": "Kensington Youth Centre 298", "postcode": "L7 8SE", "lat": 53.41293467858668, "lon": -2.958301944, "category": "youth_centre", "confidence": "high" }, "geometry": { "type": "Point", "coordinates": [ -2.958301944, 53.41293467858668 ] } },
{ "type": "Feature", "properties": { "name": "Burnage Community Youth 299", "postcode": "M19 2WY", "lat": 53.444977555433049, "lon": -2.183223331, "category": "community_youth", "confidence": "low" }, "geometry": { "type": "Point", "coordinates": [ -2.183223331, 53.444977555433049 ] } },
{ "type": "Feature", "properties": { "name": "Winsford Youth Centre 300", "postcode": "CW7 1BA", "lat": 53.19726660237324, "lon": -2.532387026, "category": "youth_centre", "confidence": "high" }, "geometry": { "type": "Point", "coordinates": [ -2.532387026, 53.19726660237324 ] } },
{ "type": "Feature", "properties": { "name": "Walton Sports Youth 301", "postcode": "L9 1NB", "lat": 53.458232773596187, "lon": -2.957787794, "category": "sports_youth", "confidence": "low" }, "geometry": { "type": "Point", "coordinates": [ -2.957787794, 53.458232773596187 ] } },
{ "type": "Feature", "properties": { "name": "Crosby Arts Youth 302", "postcode": "L23 2TB", "lat": 53.490687704279537, "lon": -3.036311971, "category": "arts_youth", "confidence": "high" }, "geometry": { "type": "Point", "coordinates": [ -3.036311971, 53.490687704279537 ] } },
{ "type": "Feature", "properties": { "name": "Chorlton Sports Youth 303", "postcode": "M21 8BF", "lat": 53.442493917557577, "lon": -2.271822763, "category": "sports_youth", "confidence": "high" }, "geometry": { "type": "Point", "coordinates": [ -2.271822763, 53.442493917557577 ] } },
{ "type": "Feature", "properties": { "name": "Formby Sports Youth 304", "postcode": "L37 4AF", "lat": 53.565688377705889, "lon": -3.07202113, "category": "sports_youth", "confidence": "high" }, "geometry": { "type": "Point", "coordinates": [ -3.07202113, 53.565688377705889 ] } },
{ "type": "Feature", "properties": { "name": "Widnes Arts Youth 305", "postcode": "WA8 6DX", "lat": 53.363728490330715, "lon": -2.726849691, "category": "arts_youth", "confidence": "low" }, "geometry": { "type": "Point", "coordinates": [ -2.726849691, 53.363728490330715 ] } },
{ "type": "Feature", "properties": { "name": "Chester Arts Youth 306", "postcode": "CH1 2BG", "lat": 53.186676698938854, "lon": -2.887472171, "category": "arts_youth", "confidence": "low" }, "geometry": { "type": "Point", "coordinates": [ -2.887472171, 53.186676698938854 ] } },
{ "type": "Feature", "properties": { "name": "Bootle Youth Centre 307", "postcode": "L20 3ER", "lat": 53.445772433108822, "lon": -2.998307963, "category": "youth_centre", "confidence": "medium" }, "geometry": { "type": "Point", "coordinates": [ -2.998307963, 53.445772433108822 ] } },
{ "type": "Feature", "properties": { "name": "Frodsham Mentoring 308", "postcode": "WA6 7QN", "lat": 53.26414155, "lon": -2.718215226, "category": "mentoring", "confidence": "medium" }, "geometry": { "type": "Point", "coordinates": [ -2.718215226, 53.26414155 ] } },
{ "type": "Feature", "properties": { "name": "Crewe Youth Centre 309", "postcode": "CW1 2DA", "lat": 53.097692833134722, "lon": -2.450467741, "category": "youth_centre", "confidence": "high" }, "geometry": { "type": "Point", "coordinates": [ -2.450467741, 53.097692833134722 ] } },
{ "type": "Feature", "properties": { "name": "Birkenhead Community Youth 310", "postcode": "CH41 5EU", "lat": 53.384950892938129, "lon": -3.015015419, "category": "community_youth", "confidence": "low" }, "geometry": { "type": "Point", "coordinates": [ -3.015015419, 53.384950892938129 ] } },
{ "type": "Feature", "properties": { "name": "West Kirby Send Support 311", "postcode": "CH48 4HX", "lat": 53.37499032930166, "lon": -3.174046132, "category": "SEND_support", "confidence": "high" }, "geometry": { "type": "Point", "coordinates": [ -3.174046132, 53.37499032930166 ] } },
{ "type": "Feature", "properties": { "name": "Bromborough Community Youth 312", "postcode": "CH62 2BS", "lat": 53.328492729431815, "lon": -2.983442473, "category": "community_youth", "confidence": "high" }, "geometry": { "type": "Point", "coordinates": [ -2.983442473, 53.328492729431815 ] } },
{ "type": "Feature", "properties": { "name": "Old Swan Mentoring 313", "postcode": "L13 5XA", "lat": 53.413919018334134, "lon": -2.93732953, "category": "mentoring", "confidence": "high" }, "geometry": { "type": "Point", "coordinates": [ -2.93732953, 53.413919018334134 ] } },
{ "type": "Feature", "properties": { "name": "Prestwich Youth Centre 314", "postcode": "M25 1AN", "lat": 53.513295463460665, "lon": -2.278524677, "category": "youth_centre", "confidence": "high" }, "geometry": { "type": "Point", "coordinates": [ -2.278524677, 53.513295463460665 ] } },
{ "type": "Feature", "properties": { "name": "Openshaw Arts Youth 315", "postcode": "M11 1HF", "lat": 53.490954583804346, "lon": -2.185587387, "category": "arts_youth", "confidence": "high" }, "geometry": { "type": "Point", "coordinates": [ -2.185587387, 53.490954583804346 ] } },
{ "type": "Feature", "properties": { "name": "Birkenhead Sports Youth 316", "postcode": "CH41 5EU", "lat": 53.400397336943414, "lon": -3.018906601, "category": "sports_youth", "confidence": "high" }, "geometry": { "type": "Point", "coordinates": [ -3.018906601, 53.400397336943414 ] } },
{ "type": "Feature", "properties": { "name": "Widnes Sports Youth 317", "postcode": "WA8 6DX", "lat": 53.373053025439646, "lon": -2.72472477, "category": "sports_youth", "confidence": "low" }, "geometry": { "type": "Point", "coordinates": [ -2.72472477, 53.373053025439646 ] } },
{ "type": "Feature", "properties": { "name": "Openshaw Community Youth 318", "postcode": "M11 1HF", "lat": 53.478060649596245, "lon": -2.199110008, "category": "community_youth", "confidence": "low" }, "geometry": { "type": "Point", "coordinates": [ -2.199110008, 53.478060649596245 ] } },
{ "type": "Feature", "properties": { "name": "Bromborough Sports Youth 319", "postcode": "CH62 2BS", "lat": 53.324308717772354, "lon": -2.984448432, "category": "sports_youth", "confidence": "low" }, "geometry": { "type": "Point", "coordinates": [ -2.984448432, 53.324308717772354 ] } },
{ "type": "Feature", "properties": { "name": "Frodsham Faith Youth 320", "postcode": "WA6 7QN", "lat": 53.264365807958782, "lon": -2.719704924, "category": "faith_youth", "confidence": "medium" }, "geometry": { "type": "Point", "coordinates": [ -2.719704924, 53.264365807958782 ] } },
{ "type": "Feature", "properties": { "name": "Formby Sports Youth 321", "postcode": "L37 4AF", "lat": 53.557018889957654, "lon": -3.06585003, "category": "sports_youth", "confidence": "low" }, "geometry": { "type": "Point", "coordinates": [ -3.06585003, 53.557018889957654 ] } },
{ "type": "Feature", "properties": { "name": "Congleton Send Support 322", "postcode": "CW12 1ET", "lat": 53.166148323907777, "lon": -2.224384736, "category": "SEND_support", "confidence": "low" }, "geometry": { "type": "Point", "coordinates": [ -2.224384736, 53.166148323907777 ] } },
{ "type": "Feature", "properties": { "name": "Nantwich Sports Youth 323", "postcode": "CW5 5RQ", "lat": 53.076289681514346, "lon": -2.529815682, "category": "sports_youth", "confidence": "medium" }, "geometry": { "type": "Point", "coordinates": [ -2.529815682, 53.076289681514346 ] } },
{ "type": "Feature", "properties": { "name": "Heswall Community Youth 324", "postcode": "CH60 0AF", "lat": 53.333725691762496, "lon": -3.090238549, "category": "community_youth", "confidence": "high" }, "geometry": { "type": "Point", "coordinates": [ -3.090238549, 53.333725691762496 ] } },
{ "type": "Feature", "properties": { "name": "Longsight Arts Youth 325", "postcode": "M13 9TQ", "lat": 53.459997024680568, "lon": -2.213811889, "category": "arts_youth", "confidence": "high" }, "geometry": { "type": "Point", "coordinates": [ -2.213811889, 53.459997024680568 ] } },
{ "type": "Feature", "properties": { "name": "Chester Faith Youth 326", "postcode": "CH1 2BG", "lat": 53.192462717224863, "lon": -2.895936928, "category": "faith_youth", "confidence": "high" }, "geometry": { "type": "Point", "coordinates": [ -2.895936928, 53.192462717224863 ] } },
{ "type": "Feature", "properties": { "name": "Prestwich Faith Youth 327", "postcode": "M25 1AN", "lat": 53.523132458982992, "lon": -2.2890716, "category": "faith_youth", "confidence": "high" }, "geometry": { "type": "Point", "coordinates": [ -2.2890716, 53.523132458982992 ] } },
{ "type": "Feature", "properties": { "name": "Ellesmere Port Youth Centre 328", "postcode": "CH65 2ER", "lat": 53.272369514990238, "lon": -2.91164201, "category": "youth_centre", "confidence": "medium" }, "geometry": { "type": "Point", "coordinates": [ -2.91164201, 53.272369514990238 ] } },
{ "type": "Feature", "properties": { "name": "Winsford Community Youth 329", "postcode": "CW7 1BA", "lat": 53.180776980553517, "lon": -2.529198466, "category": "community_youth", "confidence": "medium" }, "geometry": { "type": "Point", "coordinates": [ -2.529198466, 53.180776980553517 ] } },
{ "type": "Feature", "properties": { "name": "Formby Community Youth 330", "postcode": "L37 4AF", "lat": 53.55490058, "lon": -3.064941818, "category": "community_youth", "confidence": "high" }, "geometry": { "type": "Point", "coordinates": [ -3.064941818, 53.55490058 ] } },
{ "type": "Feature", "properties": { "name": "Great Sankey Youth Centre 331", "postcode": "WA5 1HG", "lat": 53.405830082400627, "lon": -2.668626552, "category": "youth_centre", "confidence": "medium" }, "geometry": { "type": "Point", "coordinates": [ -2.668626552, 53.405830082400627 ] } },
{ "type": "Feature", "properties": { "name": "Congleton Send Support 332", "postcode": "CW12 1ET", "lat": 53.165548765203013, "lon": -2.218284992, "category": "SEND_support", "confidence": "medium" }, "geometry": { "type": "Point", "coordinates": [ -2.218284992, 53.165548765203013 ] } },
{ "type": "Feature", "properties": { "name": "Bromborough Arts Youth 333", "postcode": "CH62 2BS", "lat": 53.336363323910646, "lon": -2.995939354, "category": "arts_youth", "confidence": "high" }, "geometry": { "type": "Point", "coordinates": [ -2.995939354, 53.336363323910646 ] } },
{ "type": "Feature", "properties": { "name": "Northwich Youth Centre 334", "postcode": "CW9 5BS", "lat": 53.26678117, "lon": -2.521229848, "category": "youth_centre", "confidence": "medium" }, "geometry": { "type": "Point", "coordinates": [ -2.521229848, 53.26678117 ] } },
{ "type": "Feature", "properties": { "name": "St Helens Faith Youth 335", "postcode": "WA10 1UF", "lat": 53.463777051368133, "lon": -2.72759338, "category": "faith_youth", "confidence": "low" }, "geometry": { "type": "Point", "coordinates": [ -2.72759338, 53.463777051368133 ] } },
{ "type": "Feature", "properties": { "name": "Runcorn Community Youth 336", "postcode": "WA7 2EU", "lat": 53.333717887226285, "lon": -2.68578364, "category": "community_youth", "confidence": "low" }, "geometry": { "type": "Point", "coordinates": [ -2.68578364, 53.333717887226285 ] } },
{ "type": "Feature", "properties": { "name": "Chester Send Support 337", "postcode": "CH1 2BG", "lat": 53.182423470558831, "lon": -2.891691349, "category": "SEND_support", "confidence": "high" }, "geometry": { "type": "Point", "coordinates": [ -2.891691349, 53.182423470558831 ] } },
{ "type": "Feature", "properties": { "name": "Moss Side Arts Youth 338", "postcode": "M16 7EX", "lat": 53.453500251596807, "lon": -2.275885272, "category": "arts_youth", "confidence": "medium" }, "geometry": { "type": "Point", "coordinates": [ -2.275885272, 53.453500251596807 ] } },
{ "type": "Feature", "properties": { "name": "Wallasey Arts Youth 339", "postcode": "CH44 2ET", "lat": 53.420256892629624, "lon": -3.046590602, "category": "arts_youth", "confidence": "low" }, "geometry": { "type": "Point", "coordinates": [ -3.046590602, 53.420256892629624 ] } },
{ "type": "Feature", "properties": { "name": "Congleton Arts Youth 340", "postcode": "CW12 1ET", "lat": 53.154147096844746, "lon": -2.219828122, "category": "arts_youth", "confidence": "medium" }, "geometry": { "type": "Point", "coordinates": [ -2.219828122, 53.154147096844746 ] } },
{ "type": "Feature", "properties": { "name": "Bromborough Sports Youth 341", "postcode": "CH62 2BS", "lat": 53.341764933398231, "lon": -2.99309352, "category": "sports_youth", "confidence": "medium" }, "geometry": { "type": "Point", "coordinates": [ -2.99309352, 53.341764933398231 ] } },
{ "type": "Feature", "properties": { "name": "Burnage Send Support 342", "postcode": "M19 2WY", "lat": 53.435446252033969, "lon": -2.180579131, "category": "SEND_support", "confidence": "low" }, "geometry": { "type": "Point", "coordinates": [ -2.180579131, 53.435446252033969 ] } },
{ "type": "Feature", "properties": { "name": "Warrington Arts Youth 343", "postcode": "WA1 1UH", "lat": 53.397206385442452, "lon": -2.594418016, "category": "arts_youth", "confidence": "low" }, "geometry": { "type": "Point", "coordinates": [ -2.594418016, 53.397206385442452 ] } },
{ "type": "Feature", "properties": { "name": "Liverpool Sports Youth 344", "postcode": "L1 5DW", "lat": 53.41000815, "lon": -2.98575759, "category": "sports_youth", "confidence": "low" }, "geometry": { "type": "Point", "coordinates": [ -2.98575759, 53.41000815 ] } },
{ "type": "Feature", "properties": { "name": "Nantwich Youth Centre 345", "postcode": "CW5 5RQ", "lat": 53.061744587860815, "lon": -2.529943979, "category": "youth_centre", "confidence": "high" }, "geometry": { "type": "Point", "coordinates": [ -2.529943979, 53.061744587860815 ] } },
{ "type": "Feature", "properties": { "name": "Runcorn Mentoring 346", "postcode": "WA7 2EU", "lat": 53.332472106699761, "lon": -2.688660001, "category": "mentoring", "confidence": "low" }, "geometry": { "type": "Point", "coordinates": [ -2.688660001, 53.332472106699761 ] } },
{ "type": "Feature", "properties": { "name": "Burnage Youth Centre 347", "postcode": "M19 2WY", "lat": 53.430589343932212, "lon": -2.19801088, "category": "youth_centre", "confidence": "medium" }, "geometry": { "type": "Point", "coordinates": [ -2.19801088, 53.430589343932212 ] } },
{ "type": "Feature", "properties": { "name": "Everton Arts Youth 348", "postcode": "L5 5AF", "lat": 53.434258666680648, "lon": -2.973111584, "category": "arts_youth", "confidence": "low" }, "geometry": { "type": "Point", "coordinates": [ -2.973111584, 53.434258666680648 ] } },
{ "type": "Feature", "properties": { "name": "Crosby Youth Centre 349", "postcode": "L23 2TB", "lat": 53.490418787564295, "lon": -3.048950643, "category": "youth_centre", "confidence": "low" }, "geometry": { "type": "Point", "coordinates": [ -3.048950643, 53.490418787564295 ] } },
{ "type": "Feature", "properties": { "name": "Openshaw Arts Youth 350", "postcode": "M11 1HF", "lat": 53.47357873248194, "lon": -2.181570595, "category": "arts_youth", "confidence": "high" }, "geometry": { "type": "Point", "coordinates": [ -2.181570595, 53.47357873248194 ] } },
{ "type": "Feature", "properties": { "name": "Allerton Faith Youth 351", "postcode": "L18 1ED", "lat": 53.379506433684575, "lon": -2.907798454, "category": "faith_youth", "confidence": "low" }, "geometry": { "type": "Point", "coordinates": [ -2.907798454, 53.379506433684575 ] } },
{ "type": "Feature", "properties": { "name": "Crosby Youth Centre 352", "postcode": "L23 2TB", "lat": 53.487135512400954, "lon": -3.036858044, "category": "youth_centre", "confidence": "high" }, "geometry": { "type": "Point", "coordinates": [ -3.036858044, 53.487135512400954 ] } },