{
"type": "FeatureCollection",
"name": "youth_provison_ch",
"crs": { "type": "name", "properties": { "name": "urn:ogc:def:crs:OGC:1.3:CRS84" } },
"xy_coordinate_resolution": 1e-15,
"features": [
{ "type": "Feature", "properties": { "name": "Beechwood Play Scheme", "local_authority": "Wirral", "category": "Youth/play provision", "address": "Fifth Avenue, Beechwood", "postcode": "CH43 9LB", "source": "zillowirral youth spaces", "notes": "Included on Wirral youth spaces page", "latitude": 53.394461, "longitude": -3.084009 }, "geometry": { "type": "Point", "coordinates": [ -3.084009, 53.394461 ] } },
{ "type": "Feature", "properties": { "name": "Gautby Road Play Scheme", "local_authority": "Wirral", "category": "Youth/play provision", "address": "Gautby Road, Birkenhead", "postcode": "CH41 7DS", "source": "zillowirral youth spaces", "notes": "Included on Wirral youth spaces page", "latitude": 53.404165, "longitude": -3.061437 }, "geometry": { "type": "Point", "coordinates": [ -3.061437, 53.404165 ] } },
{ "type": "Feature", "properties": { "name": "Hiveability - The Hive", "local_authority": "Wirral", "category": "SEND youth provision", "address": "Bright Street, Birkenhead", "postcode": "CH41 4EA", "source": "wirralinfobank", "notes": "The Hive provision up to age 25 for those with disabilities", "latitude": 53.390654, "longitude": -3.031276 }, "geometry": { "type": "Point", "coordinates": [ -3.031276, 53.390654 ] } },
{ "type": "Feature", "properties": { "name": "Birkenhead Sea Cadets", "local_authority": "Wirral", "category": "Sea cadets", "address": "2 Park Road East, Birkenhead", "postcode": "CH41 4BE", "source": "wirralinfobank / sea-cadets.org", "notes": "Sea Cadets unit", "latitude": 53.39152, "longitude": -3.035589 }, "geometry": { "type": "Point", "coordinates": [ -3.035589, 53.39152 ] } },
{ "type": "Feature", "properties": { "name": "Junior Club - The Hive", "local_authority": "Wirral", "category": "Youth club", "address": "Bright Street, Birkenhead", "postcode": "CH41 4EA", "source": "wirralinfobank", "notes": "Junior club at The Hive", "latitude": 53.390654, "longitude": -3.031276 }, "geometry": { "type": "Point", "coordinates": [ -3.031276, 53.390654 ] } },
{ "type": "Feature", "properties": { "name": "New Ferry Youth Space", "local_authority": "Wirral", "category": "Youth space", "address": "Cornwell Close, New Ferry", "postcode": "CH62 1BG", "source": "zillowirral youth spaces; wirralinfobank search", "notes": "Neighbourhood youth space", "latitude": 53.361661, "longitude": -2.994052 }, "geometry": { "type": "Point", "coordinates": [ -2.994052, 53.361661 ] } },
{ "type": "Feature", "properties": { "name": "Courtney Park Youth Club", "local_authority": "Wirral", "category": "Youth club", "address": "Courtney Road Community Centre, Rock Ferry", "postcode": "CH42 1QS", "source": "wirralinfobank", "notes": "Younger and older youth sessions", "latitude": 53.36545, "longitude": -3.003187 }, "geometry": { "type": "Point", "coordinates": [ -3.003187, 53.36545 ] } },
{ "type": "Feature", "properties": { "name": "7th Bebington (Holy Trinity) Scout Group", "local_authority": "Wirral", "category": "Scouts", "address": "Holy Trinity Church, Chorley Way, Spital, Bebington", "postcode": "CH63 9LS", "source": "scouts.org.uk", "notes": "Bebington group", "latitude": 53.333293, "longitude": -3.002477 }, "geometry": { "type": "Point", "coordinates": [ -3.002477, 53.333293 ] } },
{ "type": "Feature", "properties": { "name": "Eastham Youth Space", "local_authority": "Wirral", "category": "Youth space", "address": "Anselmians RUFC, Eastham Village Road, Eastham", "postcode": "CH62 0AN", "source": "zillowirral youth spaces; wirralinfobank", "notes": "Neighbourhood youth space", "latitude": 53.314973, "longitude": -2.961009 }, "geometry": { "type": "Point", "coordinates": [ -2.961009, 53.314973 ] } },
{ "type": "Feature", "properties": { "name": "Youth Space - The Lighthouse Church", "local_authority": "Wirral", "category": "Church youth group", "address": "The Lighthouse Church, Telegraph Road, Heswall", "postcode": "CH60 0AJ", "source": "wirralinfobank", "notes": "After-school youth space", "latitude": 53.327769, "longitude": -3.096897 }, "geometry": { "type": "Point", "coordinates": [ -3.096897, 53.327769 ] } },
{ "type": "Feature", "properties": { "name": "4th Heswall (Sea Scouts)", "local_authority": "Wirral", "category": "Scouts", "address": "St Peter's Centre / Lighthouse Church, Heswall", "postcode": "CH60 0DZ", "source": "West Wirral Scout District groups page; scouts.org.uk", "notes": "Sea Scout group", "latitude": 53.322764, "longitude": -3.103689 }, "geometry": { "type": "Point", "coordinates": [ -3.103689, 53.322764 ] } },
{ "type": "Feature", "properties": { "name": "St Andrew's (Meols) Scout Group", "local_authority": "Wirral", "category": "Scouts", "address": "St Andrew's United Reformed Church, Greenwood Road, Meols", "postcode": "CH47 6AD", "source": "West Wirral Scout District groups page; scouts.org.uk", "notes": "West Wirral Scout District group", "latitude": 53.401107, "longitude": -3.157337 }, "geometry": { "type": "Point", "coordinates": [ -3.157337, 53.401107 ] } },
{ "type": "Feature", "properties": { "name": "West Kirby Youth Space", "local_authority": "Wirral", "category": "Youth space", "address": "The Concourse, Grange Road, West Kirby", "postcode": "CH48 4HX", "source": "zillowirral youth spaces; wirralinfobank", "notes": "Neighbourhood youth space", "latitude": 53.373174, "longitude": -3.182524 }, "geometry": { "type": "Point", "coordinates": [ -3.182524, 53.373174 ] } },
{ "type": "Feature", "properties": { "name": "1st West Kirby Scout Group", "local_authority": "Wirral", "category": "Scouts", "address": "1st West Kirby Scout Group HQ, Grange Cemetery, West Kirby", "postcode": "CH48 6DD", "source": "West Wirral Scout District groups page; scouts.org.uk", "notes": "West Wirral Scout District group", "latitude": 53.376725, "longitude": -3.171498 }, "geometry": { "type": "Point", "coordinates": [ -3.171498, 53.376725 ] } },
{ "type": "Feature", "properties": { "name": "2nd West Kirby Sea Scout Group", "local_authority": "Wirral", "category": "Scouts", "address": "West Kirby Methodist Church, 29A Westbourne Road, West Kirby", "postcode": "CH48 4DQ", "source": "West Wirral Scout District groups page; scouts.org.uk", "notes": "West Wirral Scout District group", "latitude": 53.370895, "longitude": -3.181138 }, "geometry": { "type": "Point", "coordinates": [ -3.181138, 53.370895 ] } },
{ "type": "Feature", "properties": { "name": "Leasowe Adventure Playground", "local_authority": "Wirral", "category": "Youth/play provision", "address": "Oxley Avenue, Leasowe", "postcode": "CH46 1PF", "source": "zillowirral youth spaces", "notes": "Included on Wirral youth spaces page", "latitude": 53.413483, "longitude": -3.093495 }, "geometry": { "type": "Point", "coordinates": [ -3.093495, 53.413483 ] } },
{ "type": "Feature", "properties": { "name": "7th Moreton (Sacred Heart) Scout Group", "local_authority": "Wirral", "category": "Scouts", "address": "Scout Headquarters, Burnley Road, Moreton", "postcode": "CH46 9QF", "source": "West Wirral Scout District groups page; scouts.org.uk", "notes": "West Wirral Scout District group", "latitude": 53.401243, "longitude": -3.102126 }, "geometry": { "type": "Point", "coordinates": [ -3.102126, 53.401243 ] } },
{ "type": "Feature", "properties": { "name": "Moreton Youth Space", "local_authority": "Wirral", "category": "Youth space", "address": "Moreton Library, Pasture Road, Moreton", "postcode": "CH46 8SA", "source": "zillowirral youth spaces; wirralinfobank", "notes": "Neighbourhood youth space", "latitude": 53.403638, "longitude": -3.112128 }, "geometry": { "type": "Point", "coordinates": [ -3.112128, 53.403638 ] } },
{ "type": "Feature", "properties": { "name": "New Horizons", "local_authority": "Wirral", "category": "LGBTQ+ youth provision", "address": "Wallasey Youth Space, Wallasey Fire Station, Mill Lane, Wallasey", "postcode": "CH44 5UE", "source": "familytoolbox / wirralinfobank related search", "notes": "LGBTQ+ group for young people", "latitude": 53.415781, "longitude": -3.0457 }, "geometry": { "type": "Point", "coordinates": [ -3.0457, 53.415781 ] } },
{ "type": "Feature", "properties": { "name": "Liscard Youth Space", "local_authority": "Wirral", "category": "Youth space", "address": "Wallasey Fire Station, Mill Lane, Wallasey", "postcode": "CH44 5UE", "source": "zillowirral youth spaces; wirralinfobank", "notes": "Neighbourhood youth space", "latitude": 53.415781, "longitude": -3.0457 }, "geometry": { "type": "Point", "coordinates": [ -3.0457, 53.415781 ] } },
{ "type": "Feature", "properties": { "name": "12th Wallasey Scout Group", "local_authority": "Wirral", "category": "Scouts", "address": "Wallasey area", "postcode": "CH44 0AA", "source": "scouts.org.uk", "notes": "Wallasey group", "latitude": 53.417112, "longitude": -3.035444 }, "geometry": { "type": "Point", "coordinates": [ -3.035444, 53.417112 ] } },
{ "type": "Feature", "properties": { "name": "7th Wallasey Scout Group", "local_authority": "Wirral", "category": "Scouts", "address": "Wallasey area", "postcode": "CH45 4LN", "source": "scouts.org.uk search snippet", "notes": "Wallasey group", "latitude": 53.42459, "longitude": -3.046882 }, "geometry": { "type": "Point", "coordinates": [ -3.046882, 53.42459 ] } },
{ "type": "Feature", "properties": { "name": "265th Birkenhead Scout Group", "local_authority": "Wirral", "category": "Scouts", "address": "Scout Headquarters, Prenton Village Road, Prenton", "postcode": "CH43 3DD", "source": "scouts.org.uk", "notes": "Prenton/Birkenhead group", "latitude": 53.365273, "longitude": -3.052866 }, "geometry": { "type": "Point", "coordinates": [ -3.052866, 53.365273 ] } },
{ "type": "Feature", "properties": { "name": "2nd Greasby Scout Group", "local_authority": "Wirral", "category": "Scouts", "address": "Greasby Methodist Church, 192 Greasby Road, Greasby", "postcode": "CH49 2PN", "source": "West Wirral Scout District groups page; scouts.org.uk", "notes": "Scouts/Beavers/Cubs", "latitude": 53.379516, "longitude": -3.115711 }, "geometry": { "type": "Point", "coordinates": [ -3.115711, 53.379516 ] } },
{ "type": "Feature", "properties": { "name": "1st Saughall Scout Group", "local_authority": "Cheshire West and Chester", "category": "Scouts", "address": "Saughall area", "postcode": "CH1 6DH", "source": "Chester and District Scouts groups page", "notes": "Chester and District group", "latitude": 53.209708, "longitude": -2.925977 }, "geometry": { "type": "Point", "coordinates": [ -2.925977, 53.209708 ] } },
{ "type": "Feature", "properties": { "name": "5th Blacon (Holy Trinity) Scout Group", "local_authority": "Cheshire West and Chester", "category": "Scouts", "address": "Blacon area", "postcode": "CH1 5DZ", "source": "Chester and District Scouts groups page", "notes": "Chester and District group", "latitude": 53.209708, "longitude": -2.925977 }, "geometry": { "type": "Point", "coordinates": [ -2.925977, 53.209708 ] } },
{ "type": "Feature", "properties": { "name": "1st Christleton Scout Group", "local_authority": "Cheshire West and Chester", "category": "Scouts", "address": "Christleton area", "postcode": "CH3 6AQ", "source": "Chester and District Scouts groups page", "notes": "Chester and District group", "latitude": 53.184261, "longitude": -2.844935 }, "geometry": { "type": "Point", "coordinates": [ -2.844935, 53.184261 ] } },
{ "type": "Feature", "properties": { "name": "1st Guilden Sutton Scout Group", "local_authority": "Cheshire West and Chester", "category": "Scouts", "address": "Guilden Sutton area", "postcode": "CH3 7SW", "source": "Chester and District Scouts groups page", "notes": "Chester and District group", "latitude": 53.207073, "longitude": -2.829902 }, "geometry": { "type": "Point", "coordinates": [ -2.829902, 53.207073 ] } },
{ "type": "Feature", "properties": { "name": "8th Chester Scout Group", "local_authority": "Cheshire West and Chester", "category": "Scouts", "address": "Chester area", "postcode": "CH1 4JA", "source": "Chester and District Scouts groups page", "notes": "Chester and District group", "latitude": 53.192274, "longitude": -2.900877 }, "geometry": { "type": "Point", "coordinates": [ -2.900877, 53.192274 ] } },
{ "type": "Feature", "properties": { "name": "Chester Sea Cadets", "local_authority": "Cheshire West and Chester", "category": "Sea cadets", "address": "TS Deva, New Crane Bank, Chester", "postcode": "CH1 4JF", "source": "Charity Commission / sea-cadets.org", "notes": "Sea Cadets unit", "latitude": 53.191078, "longitude": -2.902079 }, "geometry": { "type": "Point", "coordinates": [ -2.902079, 53.191078 ] } },
{ "type": "Feature", "properties": { "name": "Chester Youth Zone", "local_authority": "Cheshire West and Chester", "category": "Youth zone", "address": "The Venue, Lache Community Centre, Hawthorn Road, Lache, Chester", "postcode": "CH4 8HX", "source": "Live Well Cheshire West", "notes": "Council youth service provision", "latitude": 53.173656, "longitude": -2.913678 }, "geometry": { "type": "Point", "coordinates": [ -2.913678, 53.173656 ] } },
{ "type": "Feature", "properties": { "name": "18th Chester (St Mary's) Scout Group", "local_authority": "Cheshire West and Chester", "category": "Scouts", "address": "Chester area", "postcode": "CH4 7QW", "source": "Chester and District Scouts groups page", "notes": "Chester and District group", "latitude": 53.171267, "longitude": -2.900676 }, "geometry": { "type": "Point", "coordinates": [ -2.900676, 53.171267 ] } },
{ "type": "Feature", "properties": { "name": "1st Saltney (St Mark's) Scout Group", "local_authority": "Cheshire West and Chester", "category": "Scouts", "address": "Saltney area", "postcode": "CH4 8DE", "source": "Chester and District Scouts groups page", "notes": "Chester and District group", "latitude": 53.17797, "longitude": -2.916392 }, "geometry": { "type": "Point", "coordinates": [ -2.916392, 53.17797 ] } },
{ "type": "Feature", "properties": { "name": "42nd Chester Scout Group", "local_authority": "Cheshire West and Chester", "category": "Scouts", "address": "42nd Chester Scouts, Hoole Road, Hoole, Chester", "postcode": "CH2 3NT", "source": "Cheshire Scouts / Chester and District", "notes": "Chester and District group", "latitude": 53.203948, "longitude": -2.867331 }, "geometry": { "type": "Point", "coordinates": [ -2.867331, 53.203948 ] } },
{ "type": "Feature", "properties": { "name": "1st Upton-by-Chester Scout Group", "local_authority": "Cheshire West and Chester", "category": "Scouts", "address": "Upton area", "postcode": "CH2 1BG", "source": "Chester and District Scouts groups page", "notes": "Chester and District group", "latitude": 53.213742, "longitude": -2.900518 }, "geometry": { "type": "Point", "coordinates": [ -2.900518, 53.213742 ] } },
{ "type": "Feature", "properties": { "name": "48th Chester (St Columba's) Scout Group", "local_authority": "Cheshire West and Chester", "category": "Scouts", "address": "St Michael's Church, Devon Road, Newton, Chester", "postcode": "CH2 2PX", "source": "Chester and District Scouts groups page; scouts.org.uk", "notes": "Chester and District group", "latitude": 53.210114, "longitude": -2.869881 }, "geometry": { "type": "Point", "coordinates": [ -2.869881, 53.210114 ] } },
{ "type": "Feature", "properties": { "name": "1st Tarvin Scout Group", "local_authority": "Cheshire West and Chester", "category": "Scouts", "address": "Tarvin area", "postcode": "CH3 8EW", "source": "Chester and District Scouts groups page", "notes": "Chester and District group", "latitude": 53.194597, "longitude": -2.770896 }, "geometry": { "type": "Point", "coordinates": [ -2.770896, 53.194597 ] } },
{ "type": "Feature", "properties": { "name": "1st Waverton Scout Group", "local_authority": "Cheshire West and Chester", "category": "Scouts", "address": "Waverton area", "postcode": "CH3 7QT", "source": "Chester and District Scouts groups page", "notes": "Chester and District group", "latitude": 53.169726, "longitude": -2.816556 }, "geometry": { "type": "Point", "coordinates": [ -2.816556, 53.169726 ] } },
{ "type": "Feature", "properties": { "name": "1st Sutton (Wirral) Scout Group", "local_authority": "Cheshire West and Chester", "category": "Scouts", "address": "Heath Lane, Little Sutton", "postcode": "CH66 5PB", "source": "scouts.org.uk", "notes": "Little Sutton / EPN district", "latitude": 53.286239, "longitude": -2.949263 }, "geometry": { "type": "Point", "coordinates": [ -2.949263, 53.286239 ] } },
{ "type": "Feature", "properties": { "name": "6th Ellesmere Port Scout Group", "local_authority": "Cheshire West and Chester", "category": "Scouts", "address": "Ellesmere Port area", "postcode": "CH66 3SP", "source": "scouts.org.uk search snippet", "notes": "Ellesmere Port & Neston district", "latitude": 53.277441, "longitude": -2.936708 }, "geometry": { "type": "Point", "coordinates": [ -2.936708, 53.277441 ] } },
{ "type": "Feature", "properties": { "name": "Wirral Youth Voice Group", "local_authority": "Wirral", "category": "Youth participation group", "address": "Pilgrim Street Arts Centre, Birkenhead", "postcode": "CH41 5EH", "source": "zillowirral support page", "notes": "Weekly youth voice meetings", "latitude": 53.391479, "longitude": -3.01162 }, "geometry": { "type": "Point", "coordinates": [ -3.01162, 53.391479 ] } },
{ "type": "Feature", "properties": { "name": "10th Ellesmere Port Scout Group", "local_authority": "Cheshire West and Chester", "category": "Scouts", "address": "Westminster Community Centre, Church Parade, Ellesmere Port", "postcode": "CH65 2ER", "source": "scouts.org.uk", "notes": "Ellesmere Port & Neston district", "latitude": 53.285541, "longitude": -2.896598 }, "geometry": { "type": "Point", "coordinates": [ -2.896598, 53.285541 ] } },
{ "type": "Feature", "properties": { "name": "40th Chester Scout Group", "local_authority": "Cheshire West and Chester", "category": "Scouts", "address": "Chester area", "postcode": "CH3 6DQ", "source": "Chester and District Scouts groups page", "notes": "Chester and District group", "latitude": 53.17221, "longitude": -2.864401 }, "geometry": { "type": "Point", "coordinates": [ -2.864401, 53.17221 ] } }
]
}
